,Country,Original Station Number,Original Station Name,Path to original data,Latitude,Longitude,Elevation,Number of records,Percent missing data,Original Timestep,Original Units,Daylight Saving info,No data value,Resolution,Other,height,height units,file,header_lines,units,ID,Start,End,timezone,timestep,utc_offset,Inferred_timezone,End_time,Start_time
AU_4084,Australia,4084,SHAY GAP,B:/INTENSE data/Original data/Australia/RI_5min_WA.zip/outputFor4084_999999998752773.txt,-20.4958,120.1672,164m,19904,26.08,5min,mm,NA,-999.0,0.0, Changed LST,164.0,m,/g/data/ua8/Precipitation/GSDR/aus5min_postqc/AU_4084.txt,21,mm,AU_4084,1973102417,1976020100,Local Standard Time,1hr,0 days 08:00:00,Australia/Perth,1976-01-31 16:00:00+00:00,1973-10-24 09:00:00+00:00
AU_14633,Australia,14633,ROPER BAR STORE,B:/INTENSE data/Original data/Australia/RI_5min_NT.zip/outputFor14633_999999998752779.txt,-14.7356,134.5291,18m,2472,36.93,5min,mm,NA,-999.0,0.03, Changed LST,18.0,m,/g/data/ua8/Precipitation/GSDR/aus5min_postqc/AU_14633.txt,21,mm,AU_14633,1976102101,1977020100,Local Standard Time,1hr,0 days 09:30:00,Australia/Darwin,1977-01-31 14:30:00+00:00,1976-10-20 15:30:00+00:00
AU_82042,Australia,82042,STRATHBOGIE,B:/INTENSE data/Original data/Australia/RI_5min_VIC.zip/outputFor82042_999999998752770.txt,-36.8472,145.7308,502m,364419,7.59,5min,mm,NA,-999.0,0.0, Changed LST,502.0,m,/g/data/ua8/Precipitation/GSDR/aus5min_postqc/AU_82042.txt,21,mm,AU_82042,1974010322,2015080100,Local Standard Time,1hr,0 days 10:00:00,Australia/Melbourne,2015-07-31 14:00:00+00:00,1974-01-03 12:00:00+00:00
AU_66078,Australia,66078,LUCAS HEIGHTS (ANSTO),B:/INTENSE data/Original data/Australia/RI_5min_NSW.zip/outputFor66078_999999998752763.txt,-34.0517,150.98,140m,79084,5.33,5min,mm,NA,-999.0,0.0, Changed LST,140.0,m,/g/data/ua8/Precipitation/GSDR/aus5min_postqc/AU_66078.txt,21,mm,AU_66078,1959082421,1968090100,Local Standard Time,1hr,0 days 10:00:00,Australia/Sydney,1968-08-31 14:00:00+00:00,1959-08-24 11:00:00+00:00
AU_8038,Australia,8038,MOORA WEST,B:/INTENSE data/Original data/Australia/RI_5min_WA.zip/outputFor8038_999999998752773.txt,-30.6392,115.9883,205m,110954,48.84,5min,mm,NA,-999.0,0.01, Changed LST,205.0,m,/g/data/ua8/Precipitation/GSDR/aus5min_postqc/AU_8038.txt,21,mm,AU_8038,1999070423,2012030100,Local Standard Time,1hr,0 days 08:00:00,Australia/Perth,2012-02-29 16:00:00+00:00,1999-07-04 15:00:00+00:00
AU_40659,Australia,40659,GREENBANK THOMPSON ROAD,B:/INTENSE data/Original data/Australia/RI_5min_QLD.zip/outputFor40659_999999998752738.txt,-27.6956,152.9408,77m,341443,14.28,5min,mm,NA,-999.0,0.0, Changed LST,77.0,m,/g/data/ua8/Precipitation/GSDR/aus5min_postqc/AU_40659.txt,21,mm,AU_40659,1975121906,2014120100,Local Standard Time,1hr,0 days 10:00:00,Australia/Brisbane,2014-11-30 14:00:00+00:00,1975-12-18 20:00:00+00:00
AU_61175,Australia,61175,MOUNT DARKEY,B:/INTENSE data/Original data/Australia/RI_5min_NSW.zip/outputFor61175_999999998752763.txt,-32.7,151.0,365.8m,93311,3.57,5min,mm,NA,-999.0,0.0, Changed LST,365.8,m,/g/data/ua8/Precipitation/GSDR/aus5min_postqc/AU_61175.txt,21,mm,AU_61175,1958120902,1969080100,Local Standard Time,1hr,0 days 10:00:00,Australia/Sydney,1969-07-31 14:00:00+00:00,1958-12-08 16:00:00+00:00
AU_44211,Australia,44211,CHESTERTON TM,B:/INTENSE data/Original data/Australia/RI_5min_QLD.zip/outputFor44211_999999998752738.txt,-25.3353,147.3,520m,19905,34.55,5min,mm,NA,-999.0,0.01, Changed LST,520.0,m,/g/data/ua8/Precipitation/GSDR/aus5min_postqc/AU_44211.txt,21,mm,AU_44211,1998072516,2000110100,Local Standard Time,1hr,0 days 10:00:00,Australia/Brisbane,2000-10-31 14:00:00+00:00,1998-07-25 06:00:00+00:00
AU_2048,Australia,2048,FLORA VALLEY,B:/INTENSE data/Original data/Australia/RI_5min_WA.zip/outputFor2048_999999998752773.txt,-18.2972,128.4419,380m,60672,20.55,5min,mm,NA,-999.0,0.0, Changed LST,380.0,m,/g/data/ua8/Precipitation/GSDR/aus5min_postqc/AU_2048.txt,21,mm,AU_2048,1997093001,2004090100,Local Standard Time,1hr,0 days 08:00:00,Australia/Perth,2004-08-31 16:00:00+00:00,1997-09-29 17:00:00+00:00
AU_9628,Australia,9628,COLLIE,B:/INTENSE data/Original data/Australia/RI_5min_WA.zip/outputFor9628_999999998752773.txt,-33.36,116.1467,204m,110871,22.88,5min,mm,NA,-999.0,0.0, Changed LST,204.0,m,/g/data/ua8/Precipitation/GSDR/aus5min_postqc/AU_9628.txt,21,mm,AU_9628,1956060910,1969020100,Local Standard Time,1hr,0 days 08:00:00,Australia/Perth,1969-01-31 16:00:00+00:00,1956-06-09 02:00:00+00:00
AU_23894,Australia,23894,HINDMARSH ISLAND AWS,B:/INTENSE data/Original data/Australia/RI_5min_SA.zip/outputFor23894_999999998752775.txt,-35.5194,138.8177,11m,104830,21.35,5min,mm,NA,-999.0,0.0, Changed LST,11.0,m,/g/data/ua8/Precipitation/GSDR/aus5min_postqc/AU_23894.txt,21,mm,AU_23894,2003021603,2015020100,Local Standard Time,1hr,0 days 09:30:00,Australia/Adelaide,2015-01-31 14:30:00+00:00,2003-02-15 17:30:00+00:00
AU_69117,Australia,69117,NERRIGA (LEONREX),B:/INTENSE data/Original data/Australia/RI_5min_NSW.zip/outputFor69117_999999998752763.txt,-35.15,150.1167,640m,72048,4.19,5min,mm,NA,-999.0,0.0, Changed LST,640.0,m,/g/data/ua8/Precipitation/GSDR/aus5min_postqc/AU_69117.txt,21,mm,AU_69117,1975061301,1983090100,Local Standard Time,1hr,0 days 10:00:00,Australia/Sydney,1983-08-31 14:00:00+00:00,1975-06-12 15:00:00+00:00
AU_19113,Australia,19113,EDEOWIE,B:/INTENSE data/Original data/Australia/RI_5min_SA.zip/outputFor19113_999999998752775.txt,-31.448,138.4531,159m,97128,3.3,5min,mm,NA,-999.0,0.01, Changed LST,159.0,m,/g/data/ua8/Precipitation/GSDR/aus5min_postqc/AU_19113.txt,21,mm,AU_19113,2004040101,2015050100,Local Standard Time,1hr,0 days 09:30:00,Australia/Adelaide,2015-04-30 14:30:00+00:00,2004-03-31 15:30:00+00:00
AU_35149,Australia,35149,BRIGALOW RESEARCH STN,B:/INTENSE data/Original data/Australia/RI_5min_QLD.zip/outputFor35149_999999998752738.txt,-24.8353,149.8003,168m,93229,7.2,5min,mm,NA,-999.0,0.01, Changed LST,168.0,m,/g/data/ua8/Precipitation/GSDR/aus5min_postqc/AU_35149.txt,21,mm,AU_35149,2000101112,2011060100,Local Standard Time,1hr,0 days 10:00:00,Australia/Brisbane,2011-05-31 14:00:00+00:00,2000-10-11 02:00:00+00:00
AU_25507,Australia,25507,KEITH,B:/INTENSE data/Original data/Australia/RI_5min_SA.zip/outputFor25507_999999998752775.txt,-36.098,140.3556,29m,127380,5.1,5min,mm,NA,-999.0,0.0, Changed LST,29.0,m,/g/data/ua8/Precipitation/GSDR/aus5min_postqc/AU_25507.txt,21,mm,AU_25507,1989081913,2004030100,Local Standard Time,1hr,0 days 09:30:00,Australia/Adelaide,2004-02-29 14:30:00+00:00,1989-08-19 03:30:00+00:00
AU_14128,Australia,14128,DS12,B:/INTENSE data/Original data/Australia/RI_5min_NT.zip/outputFor14128_999999998752779.txt,-12.5917,131.3227,13m,6537,10.08,5min,mm,NA,-999.0,0.2, Changed LST,13.0,m,/g/data/ua8/Precipitation/GSDR/aus5min_postqc/AU_14128.txt,21,mm,AU_14128,2006110116,2007080100,Local Standard Time,1hr,0 days 09:30:00,Australia/Darwin,2007-07-31 14:30:00+00:00,2006-11-01 06:30:00+00:00
AU_14201,Australia,14201,COX PENINSULA TRANSMITTER,B:/INTENSE data/Original data/Australia/RI_5min_NT.zip/outputFor14201_999999998752779.txt,-12.4124,130.6264,16.5m,74111,29.54,5min,mm,NA,-999.0,0.01, Changed LST,16.5,m,/g/data/ua8/Precipitation/GSDR/aus5min_postqc/AU_14201.txt,21,mm,AU_14201,2005031902,2013090100,Local Standard Time,1hr,0 days 09:30:00,Australia/Darwin,2013-08-31 14:30:00+00:00,2005-03-18 16:30:00+00:00
AU_39089,Australia,39089,THANGOOL AIRPORT,B:/INTENSE data/Original data/Australia/RI_5min_QLD.zip/outputFor39089_999999998752738.txt,-24.4935,150.5709,193.1m,153224,6.66,5min,mm,NA,-999.0,0.0, Changed LST,193.1,m,/g/data/ua8/Precipitation/GSDR/aus5min_postqc/AU_39089.txt,21,mm,AU_39089,1997100717,2015040100,Local Standard Time,1hr,0 days 10:00:00,Australia/Brisbane,2015-03-31 14:00:00+00:00,1997-10-07 07:00:00+00:00
AU_23865,Australia,23865,LENSWOOD (STRINGYBARK),B:/INTENSE data/Original data/Australia/RI_5min_SA.zip/outputFor23865_999999998752775.txt,-34.8944,138.8099,540m,4061,0.1,5min,mm,NA,-999.0,0.0, Changed LST,540.0,m,/g/data/ua8/Precipitation/GSDR/aus5min_postqc/AU_23865.txt,21,mm,AU_23865,1991061420,1991120100,Local Standard Time,1hr,0 days 09:30:00,Australia/Adelaide,1991-11-30 14:30:00+00:00,1991-06-14 10:30:00+00:00
AU_37051,Australia,37051,WINTON POST OFFICE,B:/INTENSE data/Original data/Australia/RI_5min_QLD.zip/outputFor37051_999999998752738.txt,-22.3908,143.0386,181.9m,417952,10.45,5min,mm,NA,-999.0,0.0, Changed LST,181.9,m,/g/data/ua8/Precipitation/GSDR/aus5min_postqc/AU_37051.txt,21,mm,AU_37051,1964092609,2012060100,Local Standard Time,1hr,0 days 10:00:00,Australia/Brisbane,2012-05-31 14:00:00+00:00,1964-09-25 23:00:00+00:00
AU_97007,Australia,97007,PORT DAVEY (MELALEUCA),B:/INTENSE data/Original data/Australia/RI_5min_TAS-ANT.zip/outputFor97007_999999998752777.txt,-43.4297,146.1597,6m,29952,1.7,5min,mm,NA,-999.0,0.01, Changed LST,6.0,m,/g/data/ua8/Precipitation/GSDR/aus5min_postqc/AU_97007.txt,21,mm,AU_97007,2004030101,2007080100,Local Standard Time,1hr,0 days 10:00:00,Australia/Hobart,2007-07-31 14:00:00+00:00,2004-02-29 15:00:00+00:00
AU_90083,Australia,90083,WEEAPROINAH,B:/INTENSE data/Original data/Australia/RI_5min_VIC.zip/outputFor90083_999999998752770.txt,-38.6357,143.5127,492m,338823,9.62,5min,mm,NA,-999.0,0.0, Changed LST,492.0,m,/g/data/ua8/Precipitation/GSDR/aus5min_postqc/AU_90083.txt,21,mm,AU_90083,1974030810,2012110100,Local Standard Time,1hr,0 days 10:00:00,Australia/Melbourne,2012-10-31 14:00:00+00:00,1974-03-08 00:00:00+00:00
AU_69102,Australia,69102,NORTH ARALUEN,B:/INTENSE data/Original data/Australia/RI_5min_NSW.zip/outputFor69102_999999998752763.txt,-35.6333,149.8,168m,85973,28.04,5min,mm,NA,-999.0,0.0, Changed LST,168.0,m,/g/data/ua8/Precipitation/GSDR/aus5min_postqc/AU_69102.txt,21,mm,AU_69102,1970090920,1980070100,Local Standard Time,1hr,0 days 10:00:00,Australia/Sydney,1980-06-30 14:00:00+00:00,1970-09-09 10:00:00+00:00
AU_23804,Australia,23804,VICTOR HARBOR (ENCOUNTER BAY),B:/INTENSE data/Original data/Australia/RI_5min_SA.zip/outputFor23804_999999998752775.txt,-35.5544,138.5997,8m,123269,7.87,5min,mm,NA,-999.0,0.0, Changed LST,8.0,m,/g/data/ua8/Precipitation/GSDR/aus5min_postqc/AU_23804.txt,21,mm,AU_23804,2001040720,2015050100,Local Standard Time,1hr,0 days 09:30:00,Australia/Adelaide,2015-04-30 14:30:00+00:00,2001-04-07 10:30:00+00:00
AU_83031,Australia,83031,WHITFIELD,B:/INTENSE data/Original data/Australia/RI_5min_VIC.zip/outputFor83031_999999998752770.txt,-36.7513,146.4156,240m,255639,10.68,5min,mm,NA,-999.0,0.0, Changed LST,240.0,m,/g/data/ua8/Precipitation/GSDR/aus5min_postqc/AU_83031.txt,21,mm,AU_83031,1962100210,1991120100,Local Standard Time,1hr,0 days 10:00:00,Australia/Melbourne,1991-11-30 14:00:00+00:00,1962-10-02 00:00:00+00:00
AU_34091,Australia,34091,OLIVE DOWNS,B:/INTENSE data/Original data/Australia/RI_5min_QLD.zip/outputFor34091_999999998752738.txt,-22.1333,148.3,198m,6063,16.64,5min,mm,NA,-999.0,0.13, Changed LST,198.0,m,/g/data/ua8/Precipitation/GSDR/aus5min_postqc/AU_34091.txt,21,mm,AU_34091,1980052410,1981020100,Local Standard Time,1hr,0 days 10:00:00,Australia/Brisbane,1981-01-31 14:00:00+00:00,1980-05-24 00:00:00+00:00
AU_6022,Australia,6022,GASCOYNE JUNCTION,B:/INTENSE data/Original data/Australia/RI_5min_WA.zip/outputFor6022_999999998752773.txt,-25.0544,115.21,144m,241184,9.9,5min,mm,NA,-999.0,0.0, Changed LST,144.0,m,/g/data/ua8/Precipitation/GSDR/aus5min_postqc/AU_6022.txt,21,mm,AU_6022,1987082517,2015030100,Local Standard Time,1hr,0 days 08:00:00,Australia/Perth,2015-02-28 16:00:00+00:00,1987-08-25 09:00:00+00:00
AU_40459,Australia,40459,CARINA BCC DONALDSON RD,B:/INTENSE data/Original data/Australia/RI_5min_QLD.zip/outputFor40459_999999998752738.txt,-27.5,153.1,20m,151502,9.27,5min,mm,NA,-999.0,0.0, Changed LST,20.0,m,/g/data/ua8/Precipitation/GSDR/aus5min_postqc/AU_40459.txt,21,mm,AU_40459,1971111811,1989030100,Local Standard Time,1hr,0 days 10:00:00,Australia/Brisbane,1989-02-28 14:00:00+00:00,1971-11-18 01:00:00+00:00
AU_15666,Australia,15666,RABBIT FLAT,B:/INTENSE data/Original data/Australia/RI_5min_NT.zip/outputFor15666_999999998752779.txt,-20.1823,130.0148,340m,168024,25.52,5min,mm,NA,-999.0,0.0, Changed LST,340.0,m,/g/data/ua8/Precipitation/GSDR/aus5min_postqc/AU_15666.txt,21,mm,AU_15666,1996070101,2015090100,Local Standard Time,1hr,0 days 09:30:00,Australia/Darwin,2015-08-31 14:30:00+00:00,1996-06-30 15:30:00+00:00
AU_89082,Australia,89082,BEAUFORT (SHEEPWASH),B:/INTENSE data/Original data/Australia/RI_5min_VIC.zip/outputFor89082_999999998752770.txt,-37.5042,143.2792,332m,359926,11.96,5min,mm,NA,-999.0,0.0, Changed LST,332.0,m,/g/data/ua8/Precipitation/GSDR/aus5min_postqc/AU_89082.txt,21,mm,AU_89082,1974051003,2015060100,Local Standard Time,1hr,0 days 10:00:00,Australia/Melbourne,2015-05-31 14:00:00+00:00,1974-05-09 17:00:00+00:00
AU_35040,Australia,35040,WESTGROVE TM,B:/INTENSE data/Original data/Australia/RI_5min_QLD.zip/outputFor35040_999999998752738.txt,-25.5811,148.4811,460m,33618,0.33,5min,mm,NA,-999.0,0.0, Changed LST,460.0,m,/g/data/ua8/Precipitation/GSDR/aus5min_postqc/AU_35040.txt,21,mm,AU_35040,1996083007,2000070100,Local Standard Time,1hr,0 days 10:00:00,Australia/Brisbane,2000-06-30 14:00:00+00:00,1996-08-29 21:00:00+00:00
AU_14134,Australia,14134,RUM JUNGLE WATER RES.,B:/INTENSE data/Original data/Australia/RI_5min_NT.zip/outputFor14134_999999998752779.txt,-13.15,131.0,98m,21536,40.2,5min,mm,NA,-999.0,0.01, Changed LST,98.0,m,/g/data/ua8/Precipitation/GSDR/aus5min_postqc/AU_14134.txt,21,mm,AU_14134,1962101617,1965040100,Local Standard Time,1hr,0 days 09:30:00,Australia/Darwin,1965-03-31 14:30:00+00:00,1962-10-16 07:30:00+00:00
AU_44115,Australia,44115,CHESTERTON,B:/INTENSE data/Original data/Australia/RI_5min_QLD.zip/outputFor44115_999999998752738.txt,-25.3353,147.3,538m,353397,8.69,5min,mm,NA,-999.0,0.0, Changed LST,538.0,m,/g/data/ua8/Precipitation/GSDR/aus5min_postqc/AU_44115.txt,21,mm,AU_44115,1970110604,2011030100,Local Standard Time,1hr,0 days 10:00:00,Australia/Brisbane,2011-02-28 14:00:00+00:00,1970-11-05 18:00:00+00:00
AU_23083,Australia,23083,EDINBURGH RAAF,B:/INTENSE data/Original data/Australia/RI_5min_SA.zip/outputFor23083_999999998752775.txt,-34.7111,138.6222,16.5m,309385,4.34,5min,mm,NA,-999.0,0.0, Changed LST,16.5,m,/g/data/ua8/Precipitation/GSDR/aus5min_postqc/AU_23083.txt,21,mm,AU_23083,1979111400,2015030100,Local Standard Time,1hr,0 days 09:30:00,Australia/Adelaide,2015-02-28 14:30:00+00:00,1979-11-13 14:30:00+00:00
AU_32042,Australia,32042,TULLY SUGAR MILL,B:/INTENSE data/Original data/Australia/RI_5min_QLD.zip/outputFor32042_999999998752738.txt,-17.9364,145.9253,18.8m,372951,8.96,5min,mm,NA,-999.0,0.0, Changed LST,18.8,m,/g/data/ua8/Precipitation/GSDR/aus5min_postqc/AU_32042.txt,21,mm,AU_32042,1972111310,2015060100,Local Standard Time,1hr,0 days 10:00:00,Australia/Brisbane,2015-05-31 14:00:00+00:00,1972-11-13 00:00:00+00:00
AU_55302,Australia,55302,NUNDLE (CHAFFEY DAM),B:/INTENSE data/Original data/Australia/RI_5min_NSW.zip/outputFor55302_999999998752763.txt,-31.3555,151.136,520m,328876,40.67,5min,mm,NA,-999.0,0.0, Changed LST,520.0,m,/g/data/ua8/Precipitation/GSDR/aus5min_postqc/AU_55302.txt,21,mm,AU_55302,1977112321,2015060100,Local Standard Time,1hr,0 days 10:00:00,Australia/Sydney,2015-05-31 14:00:00+00:00,1977-11-23 11:00:00+00:00
AU_84151,Australia,84151,COMBIENBAR,B:/INTENSE data/Original data/Australia/RI_5min_VIC.zip/outputFor84151_999999998752770.txt,-37.3983,149.0153,225m,63919,9.53,5min,mm,NA,-999.0,0.2, Changed LST,225.0,m,/g/data/ua8/Precipitation/GSDR/aus5min_postqc/AU_84151.txt,21,mm,AU_84151,2008041518,2015080100,Local Standard Time,1hr,0 days 10:00:00,Australia/Melbourne,2015-07-31 14:00:00+00:00,2008-04-15 08:00:00+00:00
AU_91179,Australia,91179,LAUNCESTON (RADIO STATION 7EX),B:/INTENSE data/Original data/Australia/RI_5min_TAS-ANT.zip/outputFor91179_999999998752777.txt,-41.45,147.15,106.7m,52551,2.5,5min,mm,NA,-999.0,0.0, Changed LST,106.7,m,/g/data/ua8/Precipitation/GSDR/aus5min_postqc/AU_91179.txt,21,mm,AU_91179,1966010210,1972010100,Local Standard Time,1hr,0 days 10:00:00,Australia/Hobart,1971-12-31 14:00:00+00:00,1966-01-02 00:00:00+00:00
AU_71034,Australia,71034,GUTHEGA POWER STATION,B:/INTENSE data/Original data/Australia/RI_5min_NSW.zip/outputFor71034_999999998752763.txt,-36.3517,148.4125,1340m,45941,0.8,5min,mm,NA,-999.0,0.0, Changed LST,1340.0,m,/g/data/ua8/Precipitation/GSDR/aus5min_postqc/AU_71034.txt,21,mm,AU_71034,1969070420,1974100100,Local Standard Time,1hr,0 days 10:00:00,Australia/Sydney,1974-09-30 14:00:00+00:00,1969-07-04 10:00:00+00:00
AU_74037,Australia,74037,YANCO AGRICULTURAL INSTITUTE,B:/INTENSE data/Original data/Australia/RI_5min_NSW.zip/outputFor74037_999999998752763.txt,-34.6222,146.4326,164m,115537,12.44,5min,mm,NA,-999.0,0.01, Changed LST,164.0,m,/g/data/ua8/Precipitation/GSDR/aus5min_postqc/AU_74037.txt,21,mm,AU_74037,2002042600,2015070100,Local Standard Time,1hr,0 days 10:00:00,Australia/Sydney,2015-06-30 14:00:00+00:00,2002-04-25 14:00:00+00:00
AU_1033,Australia,1033,DRYSDALE RIVER AIRSTRIP,B:/INTENSE data/Original data/Australia/RI_5min_WA.zip/outputFor1033_999999998752773.txt,-15.7119,126.3817,380m,33685,2.24,5min,mm,NA,-999.0,0.01, Changed LST,380.0,m,/g/data/ua8/Precipitation/GSDR/aus5min_postqc/AU_1033.txt,21,mm,AU_1033,1999102812,2003090100,Local Standard Time,1hr,0 days 08:00:00,Australia/Perth,2003-08-31 16:00:00+00:00,1999-10-28 04:00:00+00:00
AU_87108,Australia,87108,WERRIBEE SOUTH,B:/INTENSE data/Original data/Australia/RI_5min_VIC.zip/outputFor87108_999999998752770.txt,-37.95,144.7167,3m,7833,10.88,5min,mm,NA,-999.0,0.01, Changed LST,3.0,m,/g/data/ua8/Precipitation/GSDR/aus5min_postqc/AU_87108.txt,21,mm,AU_87108,1965060816,1966050100,Local Standard Time,1hr,0 days 10:00:00,Australia/Melbourne,1966-04-30 14:00:00+00:00,1965-06-08 06:00:00+00:00
AU_29009,Australia,29009,CLONCURRY AERO,B:/INTENSE data/Original data/Australia/RI_5min_QLD.zip/outputFor29009_999999998752738.txt,-20.6717,140.5083,189m,190632,2.61,5min,mm,NA,-999.0,0.0, Changed LST,189.0,m,/g/data/ua8/Precipitation/GSDR/aus5min_postqc/AU_29009.txt,21,mm,AU_29009,1953100101,1975070100,Local Standard Time,1hr,0 days 10:00:00,Australia/Brisbane,1975-06-30 14:00:00+00:00,1953-09-30 15:00:00+00:00
AU_10795,Australia,10795,AVONDALE FARM,B:/INTENSE data/Original data/Australia/RI_5min_WA.zip/outputFor10795_999999998752773.txt,-32.1178,116.8678,200m,479146,24.41,5min,mm,NA,-999.0,0.0, Changed LST,200.0,m,/g/data/ua8/Precipitation/GSDR/aus5min_postqc/AU_10795.txt,21,mm,AU_10795,1960080215,2015040100,Local Standard Time,1hr,0 days 08:00:00,Australia/Perth,2015-03-31 16:00:00+00:00,1960-08-02 07:00:00+00:00
AU_24024,Australia,24024,LOXTON RESEARCH CENTRE,B:/INTENSE data/Original data/Australia/RI_5min_SA.zip/outputFor24024_999999998752775.txt,-34.439,140.5978,30.1m,346153,23.94,5min,mm,NA,-999.0,0.0, Changed LST,30.1,m,/g/data/ua8/Precipitation/GSDR/aus5min_postqc/AU_24024.txt,21,mm,AU_24024,1976030600,2015090100,Local Standard Time,1hr,0 days 09:30:00,Australia/Adelaide,2015-08-31 14:30:00+00:00,1976-03-05 14:30:00+00:00
AU_16090,Australia,16090,COOBER PEDY AIRPORT,B:/INTENSE data/Original data/Australia/RI_5min_SA.zip/outputFor16090_999999998752775.txt,-29.0347,134.7222,225m,127080,12.77,5min,mm,NA,-999.0,0.0, Changed LST,225.0,m,/g/data/ua8/Precipitation/GSDR/aus5min_postqc/AU_16090.txt,21,mm,AU_16090,2000100101,2015040100,Local Standard Time,1hr,0 days 09:30:00,Australia/Adelaide,2015-03-31 14:30:00+00:00,2000-09-30 15:30:00+00:00
AU_99014,Australia,99014,MEMANA (BABEL FARM),B:/INTENSE data/Original data/Australia/RI_5min_TAS-ANT.zip/outputFor99014_999999998752777.txt,-40.0194,148.1822,12m,157765,4.94,5min,mm,NA,-999.0,0.0, Changed LST,12.0,m,/g/data/ua8/Precipitation/GSDR/aus5min_postqc/AU_99014.txt,21,mm,AU_99014,1997070112,2015070100,Local Standard Time,1hr,0 days 10:00:00,Australia/Hobart,2015-06-30 14:00:00+00:00,1997-07-01 02:00:00+00:00
AU_85235,Australia,85235,EAST TARWIN NO.18,B:/INTENSE data/Original data/Australia/RI_5min_VIC.zip/outputFor85235_999999998752770.txt,-38.5269,146.2581,365.8m,41439,16.07,5min,mm,NA,-999.0,0.0, Changed LST,365.8,m,/g/data/ua8/Precipitation/GSDR/aus5min_postqc/AU_85235.txt,21,mm,AU_85235,1972051110,1977020100,Local Standard Time,1hr,0 days 10:00:00,Australia/Melbourne,1977-01-31 14:00:00+00:00,1972-05-11 00:00:00+00:00
AU_40101,Australia,40101,IPSWICH,B:/INTENSE data/Original data/Australia/RI_5min_QLD.zip/outputFor40101_999999998752738.txt,-27.6117,152.7608,39.9m,164180,13.05,5min,mm,NA,-999.0,0.0, Changed LST,39.9,m,/g/data/ua8/Precipitation/GSDR/aus5min_postqc/AU_40101.txt,21,mm,AU_40101,1975060805,1994030100,Local Standard Time,1hr,0 days 10:00:00,Australia/Brisbane,1994-02-28 14:00:00+00:00,1975-06-07 19:00:00+00:00
AU_87152,Australia,87152,LERDERDERG NO4 RECORDER,B:/INTENSE data/Original data/Australia/RI_5min_VIC.zip/outputFor87152_999999998752770.txt,-37.4333,144.3167,732m,63545,44.31,5min,mm,NA,-999.0,0.0, Changed LST,732.0,m,/g/data/ua8/Precipitation/GSDR/aus5min_postqc/AU_87152.txt,21,mm,AU_87152,1973110208,1981020100,Local Standard Time,1hr,0 days 10:00:00,Australia/Melbourne,1981-01-31 14:00:00+00:00,1973-11-01 22:00:00+00:00
AU_15144,Australia,15144,TENNANT CREEK LP PLUVIO,B:/INTENSE data/Original data/Australia/RI_5min_NT.zip/outputFor15144_999999998752779.txt,-19.575,134.1833,375m,77246,56.32,5min,mm,NA,-999.0,0.0, Changed LST,375.0,m,/g/data/ua8/Precipitation/GSDR/aus5min_postqc/AU_15144.txt,21,mm,AU_15144,1972110811,1981090100,Local Standard Time,1hr,0 days 09:30:00,Australia/Darwin,1981-08-31 14:30:00+00:00,1972-11-08 01:30:00+00:00
AU_43044,Australia,43044,YULEBA STATE FOREST,B:/INTENSE data/Original data/Australia/RI_5min_QLD.zip/outputFor43044_999999998752738.txt,-26.6383,149.4261,326m,414161,9.97,5min,mm,NA,-999.0,0.0, Changed LST,326.0,m,/g/data/ua8/Precipitation/GSDR/aus5min_postqc/AU_43044.txt,21,mm,AU_43044,1967010108,2014040100,Local Standard Time,1hr,0 days 10:00:00,Australia/Brisbane,2014-03-31 14:00:00+00:00,1966-12-31 22:00:00+00:00
AU_65035,Australia,65035,WELLINGTON RESEARCH CENTRE,B:/INTENSE data/Original data/Australia/RI_5min_NSW.zip/outputFor65035_999999998752763.txt,-32.5059,148.9708,390m,386262,5.15,5min,mm,NA,-999.0,0.0, Changed LST,390.0,m,/g/data/ua8/Precipitation/GSDR/aus5min_postqc/AU_65035.txt,21,mm,AU_65035,1961020519,2005030100,Local Standard Time,1hr,0 days 10:00:00,Australia/Sydney,2005-02-28 14:00:00+00:00,1961-02-05 09:00:00+00:00
AU_16001,Australia,16001,WOOMERA AERODROME,B:/INTENSE data/Original data/Australia/RI_5min_SA.zip/outputFor16001_999999998752775.txt,-31.1558,136.8054,166.6m,520455,9.5,5min,mm,NA,-999.0,0.0, Changed LST,166.6,m,/g/data/ua8/Precipitation/GSDR/aus5min_postqc/AU_16001.txt,21,mm,AU_16001,1955081810,2015010100,Local Standard Time,1hr,0 days 09:30:00,Australia/Adelaide,2014-12-31 14:30:00+00:00,1955-08-18 00:30:00+00:00
AU_23307,Australia,23307,KAPUNDA,B:/INTENSE data/Original data/Australia/RI_5min_SA.zip/outputFor23307_999999998752775.txt,-34.3412,138.9155,245m,59932,6.03,5min,mm,NA,-999.0,0.0, Changed LST,245.0,m,/g/data/ua8/Precipitation/GSDR/aus5min_postqc/AU_23307.txt,21,mm,AU_23307,1957042921,1964030100,Local Standard Time,1hr,0 days 09:30:00,Australia/Adelaide,1964-02-29 14:30:00+00:00,1957-04-29 11:30:00+00:00
AU_10614,Australia,10614,NARROGIN,B:/INTENSE data/Original data/Australia/RI_5min_WA.zip/outputFor10614_999999998752773.txt,-32.9342,117.1797,338m,366084,20.17,5min,mm,NA,-999.0,0.0, Changed LST,338.0,m,/g/data/ua8/Precipitation/GSDR/aus5min_postqc/AU_10614.txt,21,mm,AU_10614,1963082713,2005060100,Local Standard Time,1hr,0 days 08:00:00,Australia/Perth,2005-05-31 16:00:00+00:00,1963-08-27 05:00:00+00:00
AU_58192,Australia,58192,UPPER MONGOGARIE (MARANGAROO),B:/INTENSE data/Original data/Australia/RI_5min_NSW.zip/outputFor58192_999999998752763.txt,-28.9883,152.8809,70m,249754,10.75,5min,mm,NA,-999.0,0.0, Changed LST,70.0,m,/g/data/ua8/Precipitation/GSDR/aus5min_postqc/AU_58192.txt,21,mm,AU_58192,1987010215,2015070100,Local Standard Time,1hr,0 days 10:00:00,Australia/Sydney,2015-06-30 14:00:00+00:00,1987-01-02 05:00:00+00:00
AU_21118,Australia,21118,PORT PIRIE AERODROME,B:/INTENSE data/Original data/Australia/RI_5min_SA.zip/outputFor21118_999999998752775.txt,-33.2341,138.001,10m,79905,8.32,5min,mm,NA,-999.0,0.2, Changed LST,10.0,m,/g/data/ua8/Precipitation/GSDR/aus5min_postqc/AU_21118.txt,21,mm,AU_21118,2006072016,2015090100,Local Standard Time,1hr,0 days 09:30:00,Australia/Adelaide,2015-08-31 14:30:00+00:00,2006-07-20 06:30:00+00:00
AU_84036,Australia,84036,BEMM RIVER (SYDENHAM INLET),B:/INTENSE data/Original data/Australia/RI_5min_VIC.zip/outputFor84036_999999998752770.txt,-37.75,148.9667,3m,31480,47.99,5min,mm,NA,-999.0,0.0, Changed LST,3.0,m,/g/data/ua8/Precipitation/GSDR/aus5min_postqc/AU_84036.txt,21,mm,AU_84036,1962092709,1966050100,Local Standard Time,1hr,0 days 10:00:00,Australia/Melbourne,1966-04-30 14:00:00+00:00,1962-09-26 23:00:00+00:00
AU_2053,Australia,2053,LANSDOWNE,B:/INTENSE data/Original data/Australia/RI_5min_WA.zip/outputFor2053_999999998752773.txt,-17.6133,126.7442,400m,121531,30.98,5min,mm,NA,-999.0,0.0, Changed LST,400.0,m,/g/data/ua8/Precipitation/GSDR/aus5min_postqc/AU_2053.txt,21,mm,AU_2053,1998062006,2012050100,Local Standard Time,1hr,0 days 08:00:00,Australia/Perth,2012-04-30 16:00:00+00:00,1998-06-19 22:00:00+00:00
AU_91126,Australia,91126,DEVONPORT AIRPORT,B:/INTENSE data/Original data/Australia/RI_5min_TAS-ANT.zip/outputFor91126_999999998752777.txt,-41.1701,146.4289,8m,87333,7.97,5min,mm,NA,-999.0,0.01, Changed LST,8.0,m,/g/data/ua8/Precipitation/GSDR/aus5min_postqc/AU_91126.txt,21,mm,AU_91126,2005041404,2015040100,Local Standard Time,1hr,0 days 10:00:00,Australia/Hobart,2015-03-31 14:00:00+00:00,2005-04-13 18:00:00+00:00
AU_33106,Australia,33106,HAMILTON ISLAND AIRPORT,B:/INTENSE data/Original data/Australia/RI_5min_QLD.zip/outputFor33106_999999998752738.txt,-20.3658,148.9536,58.7m,106929,16.67,5min,mm,NA,-999.0,0.01, Changed LST,58.7,m,/g/data/ua8/Precipitation/GSDR/aus5min_postqc/AU_33106.txt,21,mm,AU_33106,2002032016,2014060100,Local Standard Time,1hr,0 days 10:00:00,Australia/Lindeman,2014-05-31 14:00:00+00:00,2002-03-20 06:00:00+00:00
AU_3097,Australia,3097,BEVERLEY SPRINGS AIRSTRIP,B:/INTENSE data/Original data/Australia/RI_5min_WA.zip/outputFor3097_999999998752773.txt,-16.73,125.4386,393m,25593,7.81,5min,mm,NA,-999.0,0.04, Changed LST,393.0,m,/g/data/ua8/Precipitation/GSDR/aus5min_postqc/AU_3097.txt,21,mm,AU_3097,1999103016,2002100100,Local Standard Time,1hr,0 days 08:00:00,Australia/Perth,2002-09-30 16:00:00+00:00,1999-10-30 08:00:00+00:00
AU_40106,Australia,40106,KENILWORTH TOWNSHIP,B:/INTENSE data/Original data/Australia/RI_5min_QLD.zip/outputFor40106_999999998752738.txt,-26.5956,152.7281,107m,299469,17.65,5min,mm,NA,-999.0,0.0, Changed LST,107.0,m,/g/data/ua8/Precipitation/GSDR/aus5min_postqc/AU_40106.txt,21,mm,AU_40106,1981070304,2015090100,Local Standard Time,1hr,0 days 10:00:00,Australia/Brisbane,2015-08-31 14:00:00+00:00,1981-07-02 18:00:00+00:00
AU_54036,Australia,54036,WALLANGRA (WALLANGRA STATION),B:/INTENSE data/Original data/Australia/RI_5min_NSW.zip/outputFor54036_999999998752763.txt,-29.2443,150.8923,440m,137339,10.34,5min,mm,NA,-999.0,0.0, Changed LST,440.0,m,/g/data/ua8/Precipitation/GSDR/aus5min_postqc/AU_54036.txt,21,mm,AU_54036,1954060214,1970020100,Local Standard Time,1hr,0 days 10:00:00,Australia/Sydney,1970-01-31 14:00:00+00:00,1954-06-02 04:00:00+00:00
AU_52062,Australia,52062,COLLARENEBRI (COLLYMONGLE),B:/INTENSE data/Original data/Australia/RI_5min_NSW.zip/outputFor52062_999999998752763.txt,-29.4333,148.7333,147m,80757,21.72,5min,mm,NA,-999.0,0.0, Changed LST,147.0,m,/g/data/ua8/Precipitation/GSDR/aus5min_postqc/AU_52062.txt,21,mm,AU_52062,1966091404,1975120100,Local Standard Time,1hr,0 days 10:00:00,Australia/Sydney,1975-11-30 14:00:00+00:00,1966-09-13 18:00:00+00:00
AU_1019,Australia,1019,KALUMBURU,B:/INTENSE data/Original data/Australia/RI_5min_WA.zip/outputFor1019_999999998752773.txt,-14.2964,126.6453,23m,130008,25.91,5min,mm,NA,-999.0,0.01, Changed LST,23.0,m,/g/data/ua8/Precipitation/GSDR/aus5min_postqc/AU_1019.txt,21,mm,AU_1019,2000110101,2015090100,Local Standard Time,1hr,0 days 08:00:00,Australia/Perth,2015-08-31 16:00:00+00:00,2000-10-31 17:00:00+00:00
AU_87061,Australia,87061,SUNBURY (SALESIAN COLLEGE ),B:/INTENSE data/Original data/Australia/RI_5min_VIC.zip/outputFor87061_999999998752770.txt,-37.5706,144.7411,200m,342499,12.93,5min,mm,NA,-999.0,0.0, Changed LST,200.0,m,/g/data/ua8/Precipitation/GSDR/aus5min_postqc/AU_87061.txt,21,mm,AU_87061,1929010506,1968020100,Local Standard Time,1hr,0 days 10:00:00,Australia/Melbourne,1968-01-31 14:00:00+00:00,1929-01-04 20:00:00+00:00
AU_94229,Australia,94229,HOBART (ELLERSLIE RD-DINES PLUVIOGRAPH C,B:/INTENSE data/Original data/Australia/RI_5min_TAS-ANT.zip/outputFor94229_999999998752777.txt,-42.8906,147.3267,50.5m,17654,9.32,5min,mm,NA,-999.0,0.01, Changed LST,50.5,m,/g/data/ua8/Precipitation/GSDR/aus5min_postqc/AU_94229.txt,21,mm,AU_94229,2004062511,2006070100,Local Standard Time,1hr,0 days 10:00:00,Australia/Hobart,2006-06-30 14:00:00+00:00,2004-06-25 01:00:00+00:00
AU_18012,Australia,18012,CEDUNA AMO,B:/INTENSE data/Original data/Australia/RI_5min_SA.zip/outputFor18012_999999998752775.txt,-32.1297,133.6976,15.3m,539195,17.29,5min,mm,NA,-999.0,0.0, Changed LST,15.3,m,/g/data/ua8/Precipitation/GSDR/aus5min_postqc/AU_18012.txt,21,mm,AU_18012,1954012614,2015080100,Local Standard Time,1hr,0 days 09:30:00,Australia/Adelaide,2015-07-31 14:30:00+00:00,1954-01-26 04:30:00+00:00
AU_62096,Australia,62096,RYLSTONE (YOOTHAMURRA),B:/INTENSE data/Original data/Australia/RI_5min_NSW.zip/outputFor62096_999999998752763.txt,-32.6933,150.23,1067m,19722,0.09,5min,mm,NA,-999.0,0.0, Changed LST,1067.0,m,/g/data/ua8/Precipitation/GSDR/aus5min_postqc/AU_62096.txt,21,mm,AU_62096,1981033107,1983070100,Local Standard Time,1hr,0 days 10:00:00,Australia/Sydney,1983-06-30 14:00:00+00:00,1981-03-30 21:00:00+00:00
AU_1026,Australia,1026,DRYSDALE RIVER STATION,B:/INTENSE data/Original data/Australia/RI_5min_WA.zip/outputFor1026_999999998752773.txt,-15.7025,126.3786,370m,18801,4.57,5min,mm,NA,-999.0,0.04, Changed LST,370.0,m,/g/data/ua8/Precipitation/GSDR/aus5min_postqc/AU_1026.txt,21,mm,AU_1026,1997090816,1999110100,Local Standard Time,1hr,0 days 08:00:00,Australia/Perth,1999-10-31 16:00:00+00:00,1997-09-08 08:00:00+00:00
AU_40062,Australia,40062,CROHAMHURST,B:/INTENSE data/Original data/Australia/RI_5min_QLD.zip/outputFor40062_999999998752738.txt,-26.8094,152.87,200m,353592,33.22,5min,mm,NA,-999.0,0.0, Changed LST,200.0,m,/g/data/ua8/Precipitation/GSDR/aus5min_postqc/AU_40062.txt,21,mm,AU_40062,1960100101,2001020100,Local Standard Time,1hr,0 days 10:00:00,Australia/Brisbane,2001-01-31 14:00:00+00:00,1960-09-30 15:00:00+00:00
AU_57091,Australia,57091,URALLA (BLUE NOBBY),B:/INTENSE data/Original data/Australia/RI_5min_NSW.zip/outputFor57091_999999998752763.txt,-30.7167,151.8531,1067m,308193,42.15,5min,mm,NA,-999.0,0.0, Changed LST,1067.0,m,/g/data/ua8/Precipitation/GSDR/aus5min_postqc/AU_57091.txt,21,mm,AU_57091,1975010216,2010030100,Local Standard Time,1hr,0 days 10:00:00,Australia/Sydney,2010-02-28 14:00:00+00:00,1975-01-02 06:00:00+00:00
AU_65092,Australia,65092,DUBBO (JAYMARK ROAD),B:/INTENSE data/Original data/Australia/RI_5min_NSW.zip/outputFor65092_999999998752763.txt,-32.2278,148.6939,355m,102257,26.73,5min,mm,NA,-999.0,0.0, Changed LST,355.0,m,/g/data/ua8/Precipitation/GSDR/aus5min_postqc/AU_65092.txt,21,mm,AU_65092,1987010108,1998090100,Local Standard Time,1hr,0 days 10:00:00,Australia/Sydney,1998-08-31 14:00:00+00:00,1986-12-31 22:00:00+00:00
AU_14310,Australia,14310,OENPELLI AIRPORT,B:/INTENSE data/Original data/Australia/RI_5min_NT.zip/outputFor14310_999999998752779.txt,-12.3272,133.0069,7.5m,22862,19.08,5min,mm,NA,-999.0,0.2, Changed LST,7.5,m,/g/data/ua8/Precipitation/GSDR/aus5min_postqc/AU_14310.txt,21,mm,AU_14310,2012092011,2015050100,Local Standard Time,1hr,0 days 09:30:00,Australia/Darwin,2015-04-30 14:30:00+00:00,2012-09-20 01:30:00+00:00
AU_83025,Australia,83025,OMEO COMPARISON,B:/INTENSE data/Original data/Australia/RI_5min_VIC.zip/outputFor83025_999999998752770.txt,-37.1011,147.598,685m,227199,11.69,5min,mm,NA,-999.0,0.0, Changed LST,685.0,m,/g/data/ua8/Precipitation/GSDR/aus5min_postqc/AU_83025.txt,21,mm,AU_83025,1985033010,2011030100,Local Standard Time,1hr,0 days 10:00:00,Australia/Melbourne,2011-02-28 14:00:00+00:00,1985-03-30 00:00:00+00:00
AU_14703,Australia,14703,CENTRE ISLAND,B:/INTENSE data/Original data/Australia/RI_5min_NT.zip/outputFor14703_999999998752779.txt,-15.7426,136.8192,12.2m,240279,58.32,5min,mm,NA,-999.0,0.0, Changed LST,12.2,m,/g/data/ua8/Precipitation/GSDR/aus5min_postqc/AU_14703.txt,21,mm,AU_14703,1988010210,2015060100,Local Standard Time,1hr,0 days 09:30:00,Australia/Darwin,2015-05-31 14:30:00+00:00,1988-01-02 00:30:00+00:00
AU_61133,Australia,61133,BOLTON POINT (THE RIDGE WAY),B:/INTENSE data/Original data/Australia/RI_5min_NSW.zip/outputFor61133_999999998752763.txt,-32.9906,151.6099,48m,68206,13.88,5min,mm,NA,-999.0,0.0, Changed LST,48.0,m,/g/data/ua8/Precipitation/GSDR/aus5min_postqc/AU_61133.txt,21,mm,AU_61133,1970091903,1978070100,Local Standard Time,1hr,0 days 10:00:00,Australia/Sydney,1978-06-30 14:00:00+00:00,1970-09-18 17:00:00+00:00
AU_69015,Australia,69015,EDEN (CARAVAN PARK),B:/INTENSE data/Original data/Australia/RI_5min_NSW.zip/outputFor69015_999999998752763.txt,-37.0557,149.9052,9m,14955,6.25,5min,mm,NA,-999.0,0.01, Changed LST,9.0,m,/g/data/ua8/Precipitation/GSDR/aus5min_postqc/AU_69015.txt,21,mm,AU_69015,1965041722,1967010100,Local Standard Time,1hr,0 days 10:00:00,Australia/Sydney,1966-12-31 14:00:00+00:00,1965-04-17 12:00:00+00:00
AU_28004,Australia,28004,PALMERVILLE,B:/INTENSE data/Original data/Australia/RI_5min_QLD.zip/outputFor28004_999999998752738.txt,-16.0008,144.0758,203.8m,288532,9.84,5min,mm,NA,-999.0,0.0, Changed LST,203.8,m,/g/data/ua8/Precipitation/GSDR/aus5min_postqc/AU_28004.txt,21,mm,AU_28004,1966123121,1999120100,Local Standard Time,1hr,0 days 10:00:00,Australia/Brisbane,1999-11-30 14:00:00+00:00,1966-12-31 11:00:00+00:00
AU_40126,Australia,40126,MARYBOROUGH,B:/INTENSE data/Original data/Australia/RI_5min_QLD.zip/outputFor40126_999999998752738.txt,-25.5161,152.7156,10.3m,443343,7.88,5min,mm,NA,-999.0,0.0, Changed LST,10.3,m,/g/data/ua8/Precipitation/GSDR/aus5min_postqc/AU_40126.txt,21,mm,AU_40126,1964080210,2015030100,Local Standard Time,1hr,0 days 10:00:00,Australia/Brisbane,2015-02-28 14:00:00+00:00,1964-08-02 00:00:00+00:00
AU_42016,Australia,42016,HANNAFORD POST OFFICE,B:/INTENSE data/Original data/Australia/RI_5min_QLD.zip/outputFor42016_999999998752738.txt,-27.341,150.0621,283m,402170,21.94,5min,mm,NA,-999.0,0.0, Changed LST,283.0,m,/g/data/ua8/Precipitation/GSDR/aus5min_postqc/AU_42016.txt,21,mm,AU_42016,1969071423,2015060100,Local Standard Time,1hr,0 days 10:00:00,Australia/Brisbane,2015-05-31 14:00:00+00:00,1969-07-14 13:00:00+00:00
AU_59026,Australia,59026,UPPER ORARA (AURANIA),B:/INTENSE data/Original data/Australia/RI_5min_NSW.zip/outputFor59026_999999998752763.txt,-30.3076,152.9874,145m,381319,13.15,5min,mm,NA,-999.0,0.0, Changed LST,145.0,m,/g/data/ua8/Precipitation/GSDR/aus5min_postqc/AU_59026.txt,21,mm,AU_59026,1970040118,2013100100,Local Standard Time,1hr,0 days 10:00:00,Australia/Sydney,2013-09-30 14:00:00+00:00,1970-04-01 08:00:00+00:00
AU_87031,Australia,87031,LAVERTON RAAF,B:/INTENSE data/Original data/Australia/RI_5min_VIC.zip/outputFor87031_999999998752770.txt,-37.8565,144.7566,20.1m,302127,10.75,5min,mm,NA,-999.0,0.0, Changed LST,20.1,m,/g/data/ua8/Precipitation/GSDR/aus5min_postqc/AU_87031.txt,21,mm,AU_87031,1965031410,1999090100,Local Standard Time,1hr,0 days 10:00:00,Australia/Melbourne,1999-08-31 14:00:00+00:00,1965-03-14 00:00:00+00:00
AU_68054,Australia,68054,ROBERTSON (CAALONG STREET),B:/INTENSE data/Original data/Australia/RI_5min_NSW.zip/outputFor68054_999999998752763.txt,-34.5845,150.5926,758m,86887,13.98,5min,mm,NA,-999.0,0.0, Changed LST,758.0,m,/g/data/ua8/Precipitation/GSDR/aus5min_postqc/AU_68054.txt,21,mm,AU_68054,2005080118,2015070100,Local Standard Time,1hr,0 days 10:00:00,Australia/Sydney,2015-06-30 14:00:00+00:00,2005-08-01 08:00:00+00:00
AU_94145,Australia,94145,HOBART (KNOCKLOFTY),B:/INTENSE data/Original data/Australia/RI_5min_TAS-ANT.zip/outputFor94145_999999998752777.txt,-42.8831,147.3022,231.6m,167921,6.71,5min,mm,NA,-999.0,0.01, Changed LST,231.6,m,/g/data/ua8/Precipitation/GSDR/aus5min_postqc/AU_94145.txt,21,mm,AU_94145,1996070508,2015090100,Local Standard Time,1hr,0 days 10:00:00,Australia/Hobart,2015-08-31 14:00:00+00:00,1996-07-04 22:00:00+00:00
AU_24515,Australia,24515,LANGHORNE CREEK,B:/INTENSE data/Original data/Australia/RI_5min_SA.zip/outputFor24515_999999998752775.txt,-35.2959,139.0328,18m,370592,6.47,5min,mm,NA,-999.0,0.0, Changed LST,18.0,m,/g/data/ua8/Precipitation/GSDR/aus5min_postqc/AU_24515.txt,21,mm,AU_24515,1973011917,2015050100,Local Standard Time,1hr,0 days 09:30:00,Australia/Adelaide,2015-04-30 14:30:00+00:00,1973-01-19 07:30:00+00:00
AU_34038,Australia,34038,MORANBAH WATER TREATMENT PLANT,B:/INTENSE data/Original data/Australia/RI_5min_QLD.zip/outputFor34038_999999998752738.txt,-21.9947,148.0308,260m,232045,8.68,5min,mm,NA,-999.0,0.0, Changed LST,260.0,m,/g/data/ua8/Precipitation/GSDR/aus5min_postqc/AU_34038.txt,21,mm,AU_34038,1986011012,2012070100,Local Standard Time,1hr,0 days 10:00:00,Australia/Brisbane,2012-06-30 14:00:00+00:00,1986-01-10 02:00:00+00:00
AU_15652,Australia,15652,WATARRKA,B:/INTENSE data/Original data/Australia/RI_5min_NT.zip/outputFor15652_999999998752779.txt,-24.2918,131.549,614m,163603,12.22,5min,mm,NA,-999.0,0.0, Changed LST,614.0,m,/g/data/ua8/Precipitation/GSDR/aus5min_postqc/AU_15652.txt,21,mm,AU_15652,1996070106,2015030100,Local Standard Time,1hr,0 days 09:30:00,Australia/Darwin,2015-02-28 14:30:00+00:00,1996-06-30 20:30:00+00:00
AU_6072,Australia,6072,EMU CREEK STATION,B:/INTENSE data/Original data/Australia/RI_5min_WA.zip/outputFor6072_999999998752773.txt,-23.0314,115.0414,111m,374702,13.69,5min,mm,NA,-999.0,0.0, Changed LST,111.0,m,/g/data/ua8/Precipitation/GSDR/aus5min_postqc/AU_6072.txt,21,mm,AU_6072,1972070211,2015040100,Local Standard Time,1hr,0 days 08:00:00,Australia/Perth,2015-03-31 16:00:00+00:00,1972-07-02 03:00:00+00:00
AU_60141,Australia,60141,TAREE AIRPORT AWS,B:/INTENSE data/Original data/Australia/RI_5min_NSW.zip/outputFor60141_999999998752763.txt,-31.8896,152.512,8m,88886,23.8,5min,mm,NA,-999.0,0.02, Changed LST,8.0,m,/g/data/ua8/Precipitation/GSDR/aus5min_postqc/AU_60141.txt,21,mm,AU_60141,2005051011,2015070100,Local Standard Time,1hr,0 days 10:00:00,Australia/Sydney,2015-06-30 14:00:00+00:00,2005-05-10 01:00:00+00:00
AU_9240,Australia,9240,BICKLEY,B:/INTENSE data/Original data/Australia/RI_5min_WA.zip/outputFor9240_999999998752773.txt,-32.0072,116.1369,384m,161148,27.98,5min,mm,NA,-999.0,0.0, Changed LST,384.0,m,/g/data/ua8/Precipitation/GSDR/aus5min_postqc/AU_9240.txt,21,mm,AU_9240,1996101113,2015030100,Local Standard Time,1hr,0 days 08:00:00,Australia/Perth,2015-02-28 16:00:00+00:00,1996-10-11 05:00:00+00:00
AU_69000,Australia,69000,ARALUEN POST OFFICE,B:/INTENSE data/Original data/Australia/RI_5min_NSW.zip/outputFor69000_999999998752763.txt,-35.65,149.8167,160m,94863,12.78,5min,mm,NA,-999.0,0.0, Changed LST,160.0,m,/g/data/ua8/Precipitation/GSDR/aus5min_postqc/AU_69000.txt,21,mm,AU_69000,1960010510,1970110100,Local Standard Time,1hr,0 days 10:00:00,Australia/Sydney,1970-10-31 14:00:00+00:00,1960-01-05 00:00:00+00:00
AU_40526,Australia,40526,MT NEBO BCC,B:/INTENSE data/Original data/Australia/RI_5min_QLD.zip/outputFor40526_999999998752738.txt,-27.385,152.7792,200m,48111,97.65,5min,mm,NA,-999.0,0.25, Changed LST,200.0,m,/g/data/ua8/Precipitation/GSDR/aus5min_postqc/AU_40526.txt,21,mm,AU_40526,1967060610,1972120100,Local Standard Time,1hr,0 days 10:00:00,Australia/Brisbane,1972-11-30 14:00:00+00:00,1967-06-06 00:00:00+00:00
AU_15678,Australia,15678,DOCKER RIVER AIRSTRIP,B:/INTENSE data/Original data/Australia/RI_5min_NT.zip/outputFor15678_999999998752779.txt,-24.8587,129.1193,592m,52206,0.36,5min,mm,NA,-999.0,0.2, Changed LST,592.0,m,/g/data/ua8/Precipitation/GSDR/aus5min_postqc/AU_15678.txt,21,mm,AU_15678,2009051619,2015050100,Local Standard Time,1hr,0 days 09:30:00,Australia/Darwin,2015-04-30 14:30:00+00:00,2009-05-16 09:30:00+00:00
AU_41056,Australia,41056,KILLARNEY POST OFFICE,B:/INTENSE data/Original data/Australia/RI_5min_QLD.zip/outputFor41056_999999998752738.txt,-28.3344,152.2953,507m,373398,11.26,5min,mm,NA,-999.0,0.0, Changed LST,507.0,m,/g/data/ua8/Precipitation/GSDR/aus5min_postqc/AU_41056.txt,21,mm,AU_41056,1972092419,2015050100,Local Standard Time,1hr,0 days 10:00:00,Australia/Brisbane,2015-04-30 14:00:00+00:00,1972-09-24 09:00:00+00:00
AU_22823,Australia,22823,CAPE BORDA,B:/INTENSE data/Original data/Australia/RI_5min_SA.zip/outputFor22823_999999998752775.txt,-35.7549,136.5959,158m,98568,0.96,5min,mm,NA,-999.0,0.0, Changed LST,158.0,m,/g/data/ua8/Precipitation/GSDR/aus5min_postqc/AU_22823.txt,21,mm,AU_22823,2004020101,2015050100,Local Standard Time,1hr,0 days 09:30:00,Australia/Adelaide,2015-04-30 14:30:00+00:00,2004-01-31 15:30:00+00:00
AU_66062,Australia,66062,SYDNEY (OBSERVATORY HILL),B:/INTENSE data/Original data/Australia/RI_5min_NSW.zip/outputFor66062_999999998752763.txt,-33.8607,151.205,39m,894811,5.63,5min,mm,NA,-999.0,0.0, Changed LST,39.0,m,/g/data/ua8/Precipitation/GSDR/aus5min_postqc/AU_66062.txt,21,mm,AU_66062,1913010306,2015020100,Local Standard Time,1hr,0 days 10:00:00,Australia/Sydney,2015-01-31 14:00:00+00:00,1913-01-02 20:00:00+00:00
AU_17096,Australia,17096,MOOMBA,B:/INTENSE data/Original data/Australia/RI_5min_SA.zip/outputFor17096_999999998752775.txt,-28.1125,140.2102,39m,244796,5.34,5min,mm,NA,-999.0,0.0, Changed LST,39.0,m,/g/data/ua8/Precipitation/GSDR/aus5min_postqc/AU_17096.txt,21,mm,AU_17096,1972112805,2000110100,Local Standard Time,1hr,0 days 09:30:00,Australia/Adelaide,2000-10-31 14:30:00+00:00,1972-11-27 19:30:00+00:00
AU_40218,Australia,40218,CARINA HILL CRESCENT,B:/INTENSE data/Original data/Australia/RI_5min_QLD.zip/outputFor40218_999999998752738.txt,-27.5,153.0833,12m,1431,98.32,5min,mm,NA,-999.0,0.76, Changed LST,12.0,m,/g/data/ua8/Precipitation/GSDR/aus5min_postqc/AU_40218.txt,21,mm,AU_40218,1972040210,1972060100,Local Standard Time,1hr,0 days 10:00:00,Australia/Brisbane,1972-05-31 14:00:00+00:00,1972-04-02 00:00:00+00:00
AU_62020,Australia,62020,BYLONG (MONTORO),B:/INTENSE data/Original data/Australia/RI_5min_NSW.zip/outputFor62020_999999998752763.txt,-32.5014,150.0333,400m,229815,5.19,5min,mm,NA,-999.0,0.0, Changed LST,400.0,m,/g/data/ua8/Precipitation/GSDR/aus5min_postqc/AU_62020.txt,21,mm,AU_62020,1965021010,1991050100,Local Standard Time,1hr,0 days 10:00:00,Australia/Sydney,1991-04-30 14:00:00+00:00,1965-02-10 00:00:00+00:00
AU_94029,Australia,94029,HOBART (ELLERSLIE ROAD),B:/INTENSE data/Original data/Australia/RI_5min_TAS-ANT.zip/outputFor94029_999999998752777.txt,-42.8897,147.3278,50.5m,913863,8.06,5min,mm,NA,-999.0,0.0, Changed LST,50.5,m,/g/data/ua8/Precipitation/GSDR/aus5min_postqc/AU_94029.txt,21,mm,AU_94029,1911050110,2015080100,Local Standard Time,1hr,0 days 10:00:00,Australia/Hobart,2015-07-31 14:00:00+00:00,1911-05-01 00:00:00+00:00
AU_61181,Australia,61181,BROKE (OAKLEY),B:/INTENSE data/Original data/Australia/RI_5min_NSW.zip/outputFor61181_999999998752763.txt,-32.75,151.1667,91.4m,92708,9.49,5min,mm,NA,-999.0,0.0, Changed LST,91.4,m,/g/data/ua8/Precipitation/GSDR/aus5min_postqc/AU_61181.txt,21,mm,AU_61181,1959010305,1969080100,Local Standard Time,1hr,0 days 10:00:00,Australia/Sydney,1969-07-31 14:00:00+00:00,1959-01-02 19:00:00+00:00
AU_24560,Australia,24560,MONARTO SOUTH,B:/INTENSE data/Original data/Australia/RI_5min_SA.zip/outputFor24560_999999998752775.txt,-35.1167,139.1,145m,24446,7.81,5min,mm,NA,-999.0,0.0, Changed LST,145.0,m,/g/data/ua8/Precipitation/GSDR/aus5min_postqc/AU_24560.txt,21,mm,AU_24560,1972121611,1975100100,Local Standard Time,1hr,0 days 09:30:00,Australia/Adelaide,1975-09-30 14:30:00+00:00,1972-12-16 01:30:00+00:00
AU_96002,Australia,96002,BRONTE HEIGHTS,B:/INTENSE data/Original data/Australia/RI_5min_TAS-ANT.zip/outputFor96002_999999998752777.txt,-42.1419,146.4931,712m,17674,2.72,5min,mm,NA,-999.0,0.2, Changed LST,712.0,m,/g/data/ua8/Precipitation/GSDR/aus5min_postqc/AU_96002.txt,21,mm,AU_96002,2013072515,2015080100,Local Standard Time,1hr,0 days 10:00:00,Australia/Hobart,2015-07-31 14:00:00+00:00,2013-07-25 05:00:00+00:00
AU_73007,Australia,73007,BURRINJUCK DAM,B:/INTENSE data/Original data/Australia/RI_5min_NSW.zip/outputFor73007_999999998752763.txt,-34.9997,148.5984,390m,895390,31.64,5min,mm,NA,-999.0,0.0, Changed LST,390.0,m,/g/data/ua8/Precipitation/GSDR/aus5min_postqc/AU_73007.txt,21,mm,AU_73007,1911051003,2013070100,Local Standard Time,1hr,0 days 10:00:00,Australia/Sydney,2013-06-30 14:00:00+00:00,1911-05-09 17:00:00+00:00
AU_14046,Australia,14046,NOONAMAH AWS,B:/INTENSE data/Original data/Australia/RI_5min_NT.zip/outputFor14046_999999998752779.txt,-12.6365,131.0714,26.9m,36102,25.85,5min,mm,NA,-999.0,0.2, Changed LST,26.9,m,/g/data/ua8/Precipitation/GSDR/aus5min_postqc/AU_14046.txt,21,mm,AU_14046,2009051819,2013070100,Local Standard Time,1hr,0 days 09:30:00,Australia/Darwin,2013-06-30 14:30:00+00:00,2009-05-18 09:30:00+00:00
AU_39213,Australia,39213,COLENSO,B:/INTENSE data/Original data/Australia/RI_5min_QLD.zip/outputFor39213_999999998752738.txt,-24.05,150.7667,100m,14983,6.72,5min,mm,NA,-999.0,0.01, Changed LST,100.0,m,/g/data/ua8/Precipitation/GSDR/aus5min_postqc/AU_39213.txt,21,mm,AU_39213,1972041618,1974010100,Local Standard Time,1hr,0 days 10:00:00,Australia/Brisbane,1973-12-31 14:00:00+00:00,1972-04-16 08:00:00+00:00
AU_83034,Australia,83034,THOMSON UPPER,B:/INTENSE data/Original data/Australia/RI_5min_VIC.zip/outputFor83034_999999998752770.txt,-37.6333,146.1333,1158.2m,53933,15.45,5min,mm,NA,-999.0,0.0, Changed LST,1158.2,m,/g/data/ua8/Precipitation/GSDR/aus5min_postqc/AU_83034.txt,21,mm,AU_83034,1971020420,1977040100,Local Standard Time,1hr,0 days 10:00:00,Australia/Melbourne,1977-03-31 14:00:00+00:00,1971-02-04 10:00:00+00:00
AU_32004,Australia,32004,CARDWELL MARINE PDE,B:/INTENSE data/Original data/Australia/RI_5min_QLD.zip/outputFor32004_999999998752738.txt,-18.2544,146.0192,5m,370964,14.55,5min,mm,NA,-999.0,0.0, Changed LST,5.0,m,/g/data/ua8/Precipitation/GSDR/aus5min_postqc/AU_32004.txt,21,mm,AU_32004,1972090605,2015010100,Local Standard Time,1hr,0 days 10:00:00,Australia/Brisbane,2014-12-31 14:00:00+00:00,1972-09-05 19:00:00+00:00
AU_43054,Australia,43054,INJUNE TM,B:/INTENSE data/Original data/Australia/RI_5min_QLD.zip/outputFor43054_999999998752738.txt,-25.8428,148.5669,390m,9504,8.21,5min,mm,NA,-999.0,0.04, Changed LST,390.0,m,/g/data/ua8/Precipitation/GSDR/aus5min_postqc/AU_43054.txt,21,mm,AU_43054,1999060101,2000070100,Local Standard Time,1hr,0 days 10:00:00,Australia/Brisbane,2000-06-30 14:00:00+00:00,1999-05-31 15:00:00+00:00
AU_41175,Australia,41175,APPLETHORPE,B:/INTENSE data/Original data/Australia/RI_5min_QLD.zip/outputFor41175_999999998752738.txt,-28.6217,151.9533,871.6m,433152,23.2,5min,mm,NA,-999.0,0.0, Changed LST,871.6,m,/g/data/ua8/Precipitation/GSDR/aus5min_postqc/AU_41175.txt,21,mm,AU_41175,1965110101,2015040100,Local Standard Time,1hr,0 days 10:00:00,Australia/Brisbane,2015-03-31 14:00:00+00:00,1965-10-31 15:00:00+00:00
AU_74114,Australia,74114,WAGGA WAGGA RESEARCH CENTRE,B:/INTENSE data/Original data/Australia/RI_5min_NSW.zip/outputFor74114_999999998752763.txt,-35.1311,147.3091,222m,499527,18.69,5min,mm,NA,-999.0,0.0, Changed LST,222.0,m,/g/data/ua8/Precipitation/GSDR/aus5min_postqc/AU_74114.txt,21,mm,AU_74114,1947020610,2004020100,Local Standard Time,1hr,0 days 10:00:00,Australia/Sydney,2004-01-31 14:00:00+00:00,1947-02-06 00:00:00+00:00
AU_91194,Australia,91194,MOUNT VICTORIA (UNA PLAIN),B:/INTENSE data/Original data/Australia/RI_5min_TAS-ANT.zip/outputFor91194_999999998752777.txt,-41.3456,147.8036,710m,508907,27.1,5min,mm,NA,-999.0,0.0, Changed LST,710.0,m,/g/data/ua8/Precipitation/GSDR/aus5min_postqc/AU_91194.txt,21,mm,AU_91194,1957071114,2015080100,Local Standard Time,1hr,0 days 10:00:00,Australia/Hobart,2015-07-31 14:00:00+00:00,1957-07-11 04:00:00+00:00
AU_18052,Australia,18052,MINNIPA AGRICULTURAL CENTRE,B:/INTENSE data/Original data/Australia/RI_5min_SA.zip/outputFor18052_999999998752775.txt,-32.8361,135.15,168m,207251,2.44,5min,mm,NA,-999.0,0.0, Changed LST,168.0,m,/g/data/ua8/Precipitation/GSDR/aus5min_postqc/AU_18052.txt,21,mm,AU_18052,1973080914,1997040100,Local Standard Time,1hr,0 days 09:30:00,Australia/Adelaide,1997-03-31 14:30:00+00:00,1973-08-09 04:30:00+00:00
AU_16086,Australia,16086,MOONAREE (KANGAROO WELL),B:/INTENSE data/Original data/Australia/RI_5min_SA.zip/outputFor16086_999999998752775.txt,-31.7646,135.6494,275m,67478,17.3,5min,mm,NA,-999.0,0.2, Changed LST,275.0,m,/g/data/ua8/Precipitation/GSDR/aus5min_postqc/AU_16086.txt,21,mm,AU_16086,2007091911,2015060100,Local Standard Time,1hr,0 days 09:30:00,Australia/Adelaide,2015-05-31 14:30:00+00:00,2007-09-19 01:30:00+00:00
AU_87128,Australia,87128,WERRIBEE RESEARCH FARM 2,B:/INTENSE data/Original data/Australia/RI_5min_VIC.zip/outputFor87128_999999998752770.txt,-37.9167,144.7167,23.5m,64110,20.84,5min,mm,NA,-999.0,0.0, Changed LST,23.5,m,/g/data/ua8/Precipitation/GSDR/aus5min_postqc/AU_87128.txt,21,mm,AU_87128,1968070819,1975110100,Local Standard Time,1hr,0 days 10:00:00,Australia/Melbourne,1975-10-31 14:00:00+00:00,1968-07-08 09:00:00+00:00
AU_39338,Australia,39338,BUNGADOO TM,B:/INTENSE data/Original data/Australia/RI_5min_QLD.zip/outputFor39338_999999998752738.txt,-24.9822,152.0731,50m,28784,7.84,5min,mm,NA,-999.0,0.01, Changed LST,50.0,m,/g/data/ua8/Precipitation/GSDR/aus5min_postqc/AU_39338.txt,21,mm,AU_39338,1997061917,2000100100,Local Standard Time,1hr,0 days 10:00:00,Australia/Brisbane,2000-09-30 14:00:00+00:00,1997-06-19 07:00:00+00:00
AU_67020,Australia,67020,LIVERPOOL (MICHAEL WENDEN CENTRE),B:/INTENSE data/Original data/Australia/RI_5min_NSW.zip/outputFor67020_999999998752763.txt,-33.9214,150.8861,20m,94083,11.11,5min,mm,NA,-999.0,0.01, Changed LST,20.0,m,/g/data/ua8/Precipitation/GSDR/aus5min_postqc/AU_67020.txt,21,mm,AU_67020,2001120722,2012090100,Local Standard Time,1hr,0 days 10:00:00,Australia/Sydney,2012-08-31 14:00:00+00:00,2001-12-07 12:00:00+00:00
AU_70025,Australia,70025,CROOKWELL POST OFFICE,B:/INTENSE data/Original data/Australia/RI_5min_NSW.zip/outputFor70025_999999998752763.txt,-34.4578,149.4693,887m,164880,26.01,5min,mm,NA,-999.0,0.0, Changed LST,887.0,m,/g/data/ua8/Precipitation/GSDR/aus5min_postqc/AU_70025.txt,21,mm,AU_70025,1956020901,1974120100,Local Standard Time,1hr,0 days 10:00:00,Australia/Sydney,1974-11-30 14:00:00+00:00,1956-02-08 15:00:00+00:00
AU_15543,Australia,15543,AILERON,B:/INTENSE data/Original data/Australia/RI_5min_NT.zip/outputFor15543_999999998752779.txt,-22.6459,133.3457,684m,164490,11.41,5min,mm,NA,-999.0,0.01, Changed LST,684.0,m,/g/data/ua8/Precipitation/GSDR/aus5min_postqc/AU_15543.txt,21,mm,AU_15543,1996072507,2015050100,Local Standard Time,1hr,0 days 09:30:00,Australia/Darwin,2015-04-30 14:30:00+00:00,1996-07-24 21:30:00+00:00
AU_40915,Australia,40915,SUGARLOAF MOUNTAIN,B:/INTENSE data/Original data/Australia/RI_5min_QLD.zip/outputFor40915_999999998752738.txt,-27.0592,152.3242,139m,61688,19.36,5min,mm,NA,-999.0,0.2, Changed LST,139.0,m,/g/data/ua8/Precipitation/GSDR/aus5min_postqc/AU_40915.txt,21,mm,AU_40915,2008051717,2015060100,Local Standard Time,1hr,0 days 10:00:00,Australia/Brisbane,2015-05-31 14:00:00+00:00,2008-05-17 07:00:00+00:00
AU_40014,Australia,40014,BEAUDESERT CRYNA,B:/INTENSE data/Original data/Australia/RI_5min_QLD.zip/outputFor40014_999999998752738.txt,-28.0206,153.0131,106m,405535,15.18,5min,mm,NA,-999.0,0.0, Changed LST,106.0,m,/g/data/ua8/Precipitation/GSDR/aus5min_postqc/AU_40014.txt,21,mm,AU_40014,1967112518,2014030100,Local Standard Time,1hr,0 days 10:00:00,Australia/Brisbane,2014-02-28 14:00:00+00:00,1967-11-25 08:00:00+00:00
AU_79082,Australia,79082,HORSHAM,B:/INTENSE data/Original data/Australia/RI_5min_VIC.zip/outputFor79082_999999998752770.txt,-36.7007,142.2009,140m,349279,13.28,5min,mm,NA,-999.0,0.0, Changed LST,140.0,m,/g/data/ua8/Precipitation/GSDR/aus5min_postqc/AU_79082.txt,21,mm,AU_79082,1958012618,1997120100,Local Standard Time,1hr,0 days 10:00:00,Australia/Melbourne,1997-11-30 14:00:00+00:00,1958-01-26 08:00:00+00:00
AU_22041,Australia,22041,WHITE HUT,B:/INTENSE data/Original data/Australia/RI_5min_SA.zip/outputFor22041_999999998752775.txt,-35.0319,137.0951,62m,271322,44.28,5min,mm,NA,-999.0,0.0, Changed LST,62.0,m,/g/data/ua8/Precipitation/GSDR/aus5min_postqc/AU_22041.txt,21,mm,AU_22041,1973071823,2004070100,Local Standard Time,1hr,0 days 09:30:00,Australia/Adelaide,2004-06-30 14:30:00+00:00,1973-07-18 13:30:00+00:00
AU_89094,Australia,89094,WARRAMBINE BASIN NO 3,B:/INTENSE data/Original data/Australia/RI_5min_VIC.zip/outputFor89094_999999998752770.txt,-37.8333,143.8833,311m,91615,18.38,5min,mm,NA,-999.0,0.0, Changed LST,311.0,m,/g/data/ua8/Precipitation/GSDR/aus5min_postqc/AU_89094.txt,21,mm,AU_89094,1972011718,1982070100,Local Standard Time,1hr,0 days 10:00:00,Australia/Melbourne,1982-06-30 14:00:00+00:00,1972-01-17 08:00:00+00:00
AU_15662,Australia,15662,ALICE SPRINGS AIRPORT TBRG,B:/INTENSE data/Original data/Australia/RI_5min_NT.zip/outputFor15662_999999998752779.txt,-23.8083,133.8833,546m,105726,75.93,5min,mm,NA,-999.0,0.03, Changed LST,546.0,m,/g/data/ua8/Precipitation/GSDR/aus5min_postqc/AU_15662.txt,21,mm,AU_15662,1996040819,2008050100,Local Standard Time,1hr,0 days 09:30:00,Australia/Darwin,2008-04-30 14:30:00+00:00,1996-04-08 09:30:00+00:00
AU_41092,Australia,41092,BALLON AL,B:/INTENSE data/Original data/Australia/RI_5min_QLD.zip/outputFor41092_999999998752738.txt,-26.4489,150.8925,335m,12456,55.35,5min,mm,NA,-999.0,0.01, Changed LST,335.0,m,/g/data/ua8/Precipitation/GSDR/aus5min_postqc/AU_41092.txt,21,mm,AU_41092,1999060101,2000110100,Local Standard Time,1hr,0 days 10:00:00,Australia/Brisbane,2000-10-31 14:00:00+00:00,1999-05-31 15:00:00+00:00
AU_40311,Australia,40311,NUKINENDA,B:/INTENSE data/Original data/Australia/RI_5min_QLD.zip/outputFor40311_999999998752738.txt,-27.06,152.1403,350.5m,23645,23.06,5min,mm,NA,-999.0,0.0, Changed LST,350.5,m,/g/data/ua8/Precipitation/GSDR/aus5min_postqc/AU_40311.txt,21,mm,AU_40311,1990021920,1992110100,Local Standard Time,1hr,0 days 10:00:00,Australia/Brisbane,1992-10-31 14:00:00+00:00,1990-02-19 10:00:00+00:00
AU_42036,Australia,42036,BAWNDUGGIE AL,B:/INTENSE data/Original data/Australia/RI_5min_QLD.zip/outputFor42036_999999998752738.txt,-26.16,150.8392,380m,12706,54.27,5min,mm,NA,-999.0,0.1, Changed LST,380.0,m,/g/data/ua8/Precipitation/GSDR/aus5min_postqc/AU_42036.txt,21,mm,AU_42036,1999052115,2000110100,Local Standard Time,1hr,0 days 10:00:00,Australia/Brisbane,2000-10-31 14:00:00+00:00,1999-05-21 05:00:00+00:00
AU_18199,Australia,18199,NUNDROO (CHINTULDA WELL),B:/INTENSE data/Original data/Australia/RI_5min_SA.zip/outputFor18199_999999998752775.txt,-31.8832,132.1555,65m,91292,14.58,5min,mm,NA,-999.0,0.01, Changed LST,65.0,m,/g/data/ua8/Precipitation/GSDR/aus5min_postqc/AU_18199.txt,21,mm,AU_18199,2004113005,2015050100,Local Standard Time,1hr,0 days 09:30:00,Australia/Adelaide,2015-04-30 14:30:00+00:00,2004-11-29 19:30:00+00:00
AU_33087,Australia,33087,BARNGANAL BLUE MOUNTAIN,B:/INTENSE data/Original data/Australia/RI_5min_QLD.zip/outputFor33087_999999998752738.txt,-21.5286,149.0006,193m,448700,10.65,5min,mm,NA,-999.0,0.0, Changed LST,193.0,m,/g/data/ua8/Precipitation/GSDR/aus5min_postqc/AU_33087.txt,21,mm,AU_33087,1963072505,2014100100,Local Standard Time,1hr,0 days 10:00:00,Australia/Brisbane,2014-09-30 14:00:00+00:00,1963-07-24 19:00:00+00:00
AU_22031,Australia,22031,MINLATON AERO,B:/INTENSE data/Original data/Australia/RI_5min_SA.zip/outputFor22031_999999998752775.txt,-34.748,137.5276,32m,122985,3.75,5min,mm,NA,-999.0,0.0, Changed LST,32.0,m,/g/data/ua8/Precipitation/GSDR/aus5min_postqc/AU_22031.txt,21,mm,AU_22031,2001072016,2015080100,Local Standard Time,1hr,0 days 09:30:00,Australia/Adelaide,2015-07-31 14:30:00+00:00,2001-07-20 06:30:00+00:00
AU_40244,Australia,40244,SUNNYBANK BOWLS CLUB,B:/INTENSE data/Original data/Australia/RI_5min_QLD.zip/outputFor40244_999999998752738.txt,-27.5756,153.0583,60m,2703,93.78,5min,mm,NA,-999.0,0.25, Changed LST,60.0,m,/g/data/ua8/Precipitation/GSDR/aus5min_postqc/AU_40244.txt,21,mm,AU_40244,1972020910,1972060100,Local Standard Time,1hr,0 days 10:00:00,Australia/Brisbane,1972-05-31 14:00:00+00:00,1972-02-09 00:00:00+00:00
AU_41063,Australia,41063,LEYBURN POST OFFICE,B:/INTENSE data/Original data/Australia/RI_5min_QLD.zip/outputFor41063_999999998752738.txt,-28.0106,151.5856,412m,159865,23.33,5min,mm,NA,-999.0,0.0, Changed LST,412.0,m,/g/data/ua8/Precipitation/GSDR/aus5min_postqc/AU_41063.txt,21,mm,AU_41063,1997030600,2015060100,Local Standard Time,1hr,0 days 10:00:00,Australia/Brisbane,2015-05-31 14:00:00+00:00,1997-03-05 14:00:00+00:00
AU_10092,Australia,10092,MERREDIN,B:/INTENSE data/Original data/Australia/RI_5min_WA.zip/outputFor10092_999999998752773.txt,-31.4756,118.2789,315m,434583,12.89,5min,mm,NA,-999.0,0.0, Changed LST,315.0,m,/g/data/ua8/Precipitation/GSDR/aus5min_postqc/AU_10092.txt,21,mm,AU_10092,1966010210,2015080100,Local Standard Time,1hr,0 days 08:00:00,Australia/Perth,2015-07-31 16:00:00+00:00,1966-01-02 02:00:00+00:00
AU_23122,Australia,23122,ROSEWORTHY AWS,B:/INTENSE data/Original data/Australia/RI_5min_SA.zip/outputFor23122_999999998752775.txt,-34.5106,138.6763,65m,140737,5.05,5min,mm,NA,-999.0,0.0, Changed LST,65.0,m,/g/data/ua8/Precipitation/GSDR/aus5min_postqc/AU_23122.txt,21,mm,AU_23122,1999051200,2015060100,Local Standard Time,1hr,0 days 09:30:00,Australia/Adelaide,2015-05-31 14:30:00+00:00,1999-05-11 14:30:00+00:00
AU_7152,Australia,7152,KUMARINA,B:/INTENSE data/Original data/Australia/RI_5min_WA.zip/outputFor7152_999999998752773.txt,-24.75,119.6056,602m,16826,7.14,5min,mm,NA,-999.0,0.04, Changed LST,602.0,m,/g/data/ua8/Precipitation/GSDR/aus5min_postqc/AU_7152.txt,21,mm,AU_7152,1998063023,2000060100,Local Standard Time,1hr,0 days 08:00:00,Australia/Perth,2000-05-31 16:00:00+00:00,1998-06-30 15:00:00+00:00
AU_14646,Australia,14646,FLYING FOX,B:/INTENSE data/Original data/Australia/RI_5min_NT.zip/outputFor14646_999999998752779.txt,-14.853,134.0361,58m,147246,13.07,5min,mm,NA,-999.0,0.01, Changed LST,58.0,m,/g/data/ua8/Precipitation/GSDR/aus5min_postqc/AU_14646.txt,21,mm,AU_14646,1997081319,2014060100,Local Standard Time,1hr,0 days 09:30:00,Australia/Darwin,2014-05-31 14:30:00+00:00,1997-08-13 09:30:00+00:00
AU_84123,Australia,84123,WROXHAM NO 2,B:/INTENSE data/Original data/Australia/RI_5min_VIC.zip/outputFor84123_999999998752770.txt,-37.3475,149.4806,210m,235821,16.05,5min,mm,NA,-999.0,0.0, Changed LST,210.0,m,/g/data/ua8/Precipitation/GSDR/aus5min_postqc/AU_84123.txt,21,mm,AU_84123,1972060504,1999050100,Local Standard Time,1hr,0 days 10:00:00,Australia/Melbourne,1999-04-30 14:00:00+00:00,1972-06-04 18:00:00+00:00
AU_82039,Australia,82039,RUTHERGLEN RESEARCH,B:/INTENSE data/Original data/Australia/RI_5min_VIC.zip/outputFor82039_999999998752770.txt,-36.1047,146.5094,175m,342812,17.73,5min,mm,NA,-999.0,0.0, Changed LST,175.0,m,/g/data/ua8/Precipitation/GSDR/aus5min_postqc/AU_82039.txt,21,mm,AU_82039,1975022105,2014040100,Local Standard Time,1hr,0 days 10:00:00,Australia/Melbourne,2014-03-31 14:00:00+00:00,1975-02-20 19:00:00+00:00
AU_80126,Australia,80126,KERANG MODEL FARM,B:/INTENSE data/Original data/Australia/RI_5min_VIC.zip/outputFor80126_999999998752770.txt,-35.7175,143.9111,77.2m,97106,8.3,5min,mm,NA,-999.0,0.03, Changed LST,77.2,m,/g/data/ua8/Precipitation/GSDR/aus5min_postqc/AU_80126.txt,21,mm,AU_80126,2004060123,2015070100,Local Standard Time,1hr,0 days 10:00:00,Australia/Melbourne,2015-06-30 14:00:00+00:00,2004-06-01 13:00:00+00:00
AU_39034,Australia,39034,DELUBRA,B:/INTENSE data/Original data/Australia/RI_5min_QLD.zip/outputFor39034_999999998752738.txt,-25.7336,150.9231,200m,51698,13.31,5min,mm,NA,-999.0,0.0, Changed LST,200.0,m,/g/data/ua8/Precipitation/GSDR/aus5min_postqc/AU_39034.txt,21,mm,AU_39034,1963080723,1969070100,Local Standard Time,1hr,0 days 10:00:00,Australia/Brisbane,1969-06-30 14:00:00+00:00,1963-08-07 13:00:00+00:00
AU_40458,Australia,40458,CAPALABA WATER TREAT,B:/INTENSE data/Original data/Australia/RI_5min_QLD.zip/outputFor40458_999999998752738.txt,-27.5314,153.1825,28m,380146,10.92,5min,mm,NA,-999.0,0.0, Changed LST,28.0,m,/g/data/ua8/Precipitation/GSDR/aus5min_postqc/AU_40458.txt,21,mm,AU_40458,1971111815,2015040100,Local Standard Time,1hr,0 days 10:00:00,Australia/Brisbane,2015-03-31 14:00:00+00:00,1971-11-18 05:00:00+00:00
AU_5007,Australia,5007,LEARMONTH AIRPORT,B:/INTENSE data/Original data/Australia/RI_5min_WA.zip/outputFor5007_999999998752773.txt,-22.2406,114.0967,5m,354169,7.63,5min,mm,NA,-999.0,0.0, Changed LST,5.0,m,/g/data/ua8/Precipitation/GSDR/aus5min_postqc/AU_5007.txt,21,mm,AU_5007,1975030700,2015080100,Local Standard Time,1hr,0 days 08:00:00,Australia/Perth,2015-07-31 16:00:00+00:00,1975-03-06 16:00:00+00:00
AU_69055,Australia,69055,GREEN CAPE LIGHTHOUSE,B:/INTENSE data/Original data/Australia/RI_5min_NSW.zip/outputFor69055_999999998752763.txt,-37.2614,150.0497,20m,308579,20.51,5min,mm,NA,-999.0,0.0, Changed LST,20.0,m,/g/data/ua8/Precipitation/GSDR/aus5min_postqc/AU_69055.txt,21,mm,AU_69055,1967031914,2002060100,Local Standard Time,1hr,0 days 10:00:00,Australia/Sydney,2002-05-31 14:00:00+00:00,1967-03-19 04:00:00+00:00
AU_56218,Australia,56218,BLACK MOUNTAIN (ST.ELMO),B:/INTENSE data/Original data/Australia/RI_5min_NSW.zip/outputFor56218_999999998752763.txt,-30.35,151.3833,1025m,20304,51.74,5min,mm,NA,-999.0,0.01, Changed LST,1025.0,m,/g/data/ua8/Precipitation/GSDR/aus5min_postqc/AU_56218.txt,21,mm,AU_56218,1974060801,1976100100,Local Standard Time,1hr,0 days 10:00:00,Australia/Sydney,1976-09-30 14:00:00+00:00,1974-06-07 15:00:00+00:00
AU_85034,Australia,85034,GLENMAGGIE WEIR,B:/INTENSE data/Original data/Australia/RI_5min_VIC.zip/outputFor85034_999999998752770.txt,-37.9085,146.8046,95m,506197,11.45,5min,mm,NA,-999.0,0.0, Changed LST,95.0,m,/g/data/ua8/Precipitation/GSDR/aus5min_postqc/AU_85034.txt,21,mm,AU_85034,1957120212,2015090100,Local Standard Time,1hr,0 days 10:00:00,Australia/Melbourne,2015-08-31 14:00:00+00:00,1957-12-02 02:00:00+00:00
AU_52060,Australia,52060,BURREN JUNCTION (PLAIN VIEW),B:/INTENSE data/Original data/Australia/RI_5min_NSW.zip/outputFor52060_999999998752763.txt,-30.1667,148.95,168m,37677,24.5,5min,mm,NA,-999.0,0.01, Changed LST,168.0,m,/g/data/ua8/Precipitation/GSDR/aus5min_postqc/AU_52060.txt,21,mm,AU_52060,1966091404,1971010100,Local Standard Time,1hr,0 days 10:00:00,Australia/Sydney,1970-12-31 14:00:00+00:00,1966-09-13 18:00:00+00:00
AU_33068,Australia,33068,MIRANI MARY STREET,B:/INTENSE data/Original data/Australia/RI_5min_QLD.zip/outputFor33068_999999998752738.txt,-21.1631,148.87,43m,129264,19.99,5min,mm,NA,-999.0,0.01, Changed LST,43.0,m,/g/data/ua8/Precipitation/GSDR/aus5min_postqc/AU_33068.txt,21,mm,AU_33068,2000060101,2015030100,Local Standard Time,1hr,0 days 10:00:00,Australia/Brisbane,2015-02-28 14:00:00+00:00,2000-05-31 15:00:00+00:00
AU_5067,Australia,5067,CANE RIVER,B:/INTENSE data/Original data/Australia/RI_5min_WA.zip/outputFor5067_999999998752773.txt,-22.0894,115.6239,80m,87375,11.5,5min,mm,NA,-999.0,0.0, Changed LST,80.0,m,/g/data/ua8/Precipitation/GSDR/aus5min_postqc/AU_5067.txt,21,mm,AU_5067,1973021210,1983020100,Local Standard Time,1hr,0 days 08:00:00,Australia/Perth,1983-01-31 16:00:00+00:00,1973-02-12 02:00:00+00:00
AU_3063,Australia,3063,CHARNLEY RIVER,B:/INTENSE data/Original data/Australia/RI_5min_WA.zip/outputFor3063_999999998752773.txt,-16.7161,125.4603,400m,16636,3.24,5min,mm,NA,-999.0,0.01, Changed LST,400.0,m,/g/data/ua8/Precipitation/GSDR/aus5min_postqc/AU_3063.txt,21,mm,AU_3063,1997090621,1999080100,Local Standard Time,1hr,0 days 08:00:00,Australia/Perth,1999-07-31 16:00:00+00:00,1997-09-06 13:00:00+00:00
AU_58044,Australia,58044,NIMBIN POST OFFICE,B:/INTENSE data/Original data/Australia/RI_5min_NSW.zip/outputFor58044_999999998752763.txt,-28.5966,153.2233,70m,457978,23.45,5min,mm,NA,-999.0,0.0, Changed LST,70.0,m,/g/data/ua8/Precipitation/GSDR/aus5min_postqc/AU_58044.txt,21,mm,AU_58044,1963040215,2015070100,Local Standard Time,1hr,0 days 10:00:00,Australia/Sydney,2015-06-30 14:00:00+00:00,1963-04-02 05:00:00+00:00
AU_15131,Australia,15131,ELLIOTT,B:/INTENSE data/Original data/Australia/RI_5min_NT.zip/outputFor15131_999999998752779.txt,-17.5551,133.5439,220m,241689,20.93,5min,mm,NA,-999.0,0.0, Changed LST,220.0,m,/g/data/ua8/Precipitation/GSDR/aus5min_postqc/AU_15131.txt,21,mm,AU_15131,1988010416,2015080100,Local Standard Time,1hr,0 days 09:30:00,Australia/Darwin,2015-07-31 14:30:00+00:00,1988-01-04 06:30:00+00:00
AU_33210,Australia,33210,ST LAWRENCE,B:/INTENSE data/Original data/Australia/RI_5min_QLD.zip/outputFor33210_999999998752738.txt,-22.3472,149.5242,9.2m,2970,21.08,5min,mm,NA,-999.0,0.06, Changed LST,9.2,m,/g/data/ua8/Precipitation/GSDR/aus5min_postqc/AU_33210.txt,21,mm,AU_33210,2004083007,2005010100,Local Standard Time,1hr,0 days 10:00:00,Australia/Brisbane,2004-12-31 14:00:00+00:00,2004-08-29 21:00:00+00:00
AU_1018,Australia,1018,MOUNT ELIZABETH,B:/INTENSE data/Original data/Australia/RI_5min_WA.zip/outputFor1018_999999998752773.txt,-16.4181,126.1025,546m,190926,19.16,5min,mm,NA,-999.0,0.0, Changed LST,546.0,m,/g/data/ua8/Precipitation/GSDR/aus5min_postqc/AU_1018.txt,21,mm,AU_1018,1993111919,2015090100,Local Standard Time,1hr,0 days 08:00:00,Australia/Perth,2015-08-31 16:00:00+00:00,1993-11-19 11:00:00+00:00
AU_200847,Australia,200847,GRANTS WELL,B:/INTENSE data/Original data/Australia/RI_5min_WA.zip/outputFor200847_999999998752773.txt,-10.4808,105.6519,230m,82486,24.7,5min,mm,NA,-999.0,0.0, Changed LST,230.0,m,/g/data/ua8/Precipitation/GSDR/aus5min_postqc/AU_200847.txt,21,mm,AU_200847,1997020103,2006070100,Local Standard Time,1hr,0 days 07:00:00,Indian/Christmas,2006-06-30 17:00:00+00:00,1997-01-31 20:00:00+00:00
AU_91033,Australia,91033,FRANKFORD (ROSSVILLE),B:/INTENSE data/Original data/Australia/RI_5min_TAS-ANT.zip/outputFor91033_999999998752777.txt,-41.3203,146.7378,240m,161000,39.04,5min,mm,NA,-999.0,0.0, Changed LST,240.0,m,/g/data/ua8/Precipitation/GSDR/aus5min_postqc/AU_91033.txt,21,mm,AU_91033,1957081917,1976010100,Local Standard Time,1hr,0 days 10:00:00,Australia/Hobart,1975-12-31 14:00:00+00:00,1957-08-19 07:00:00+00:00
AU_200731,Australia,200731,POINT FAWCETT,B:/INTENSE data/Original data/Australia/RI_5min_NT.zip/outputFor200731_999999998752779.txt,-11.7628,130.03,6.5m,120058,29.72,5min,mm,NA,-999.0,0.02, Changed LST,6.5,m,/g/data/ua8/Precipitation/GSDR/aus5min_postqc/AU_200731.txt,21,mm,AU_200731,2001101915,2015070100,Local Standard Time,1hr,0 days 09:30:00,Australia/Darwin,2015-06-30 14:30:00+00:00,2001-10-19 05:30:00+00:00
AU_85227,Australia,85227,EAST TARWIN (MIRBOO PASTORAL COMPANY),B:/INTENSE data/Original data/Australia/RI_5min_VIC.zip/outputFor85227_999999998752770.txt,-38.5215,146.2041,263m,382216,24.06,5min,mm,NA,-999.0,0.0, Changed LST,263.0,m,/g/data/ua8/Precipitation/GSDR/aus5min_postqc/AU_85227.txt,21,mm,AU_85227,1971112309,2015070100,Local Standard Time,1hr,0 days 10:00:00,Australia/Melbourne,2015-06-30 14:00:00+00:00,1971-11-22 23:00:00+00:00
AU_89002,Australia,89002,BALLARAT AERODROME,B:/INTENSE data/Original data/Australia/RI_5min_VIC.zip/outputFor89002_999999998752770.txt,-37.5127,143.7911,435.2m,393998,9.6,5min,mm,NA,-999.0,0.0, Changed LST,435.2,m,/g/data/ua8/Precipitation/GSDR/aus5min_postqc/AU_89002.txt,21,mm,AU_89002,1954082011,1999080100,Local Standard Time,1hr,0 days 10:00:00,Australia/Melbourne,1999-07-31 14:00:00+00:00,1954-08-20 01:00:00+00:00
AU_14404,Australia,14404,MILINGIMBI AIRPORT,B:/INTENSE data/Original data/Australia/RI_5min_NT.zip/outputFor14404_999999998752779.txt,-12.0932,134.8919,15m,61642,26.01,5min,mm,NA,-999.0,0.2, Changed LST,15.0,m,/g/data/ua8/Precipitation/GSDR/aus5min_postqc/AU_14404.txt,21,mm,AU_14404,2008031915,2015040100,Local Standard Time,1hr,0 days 09:30:00,Australia/Darwin,2015-03-31 14:30:00+00:00,2008-03-19 05:30:00+00:00
AU_92011,Australia,92011,GLADSTONE (OLD POST OFFICE),B:/INTENSE data/Original data/Australia/RI_5min_TAS-ANT.zip/outputFor92011_999999998752777.txt,-40.9589,148.0086,61m,18283,35.8,5min,mm,NA,-999.0,0.0, Changed LST,61.0,m,/g/data/ua8/Precipitation/GSDR/aus5min_postqc/AU_92011.txt,21,mm,AU_92011,1968010106,1970020100,Local Standard Time,1hr,0 days 10:00:00,Australia/Hobart,1970-01-31 14:00:00+00:00,1967-12-31 20:00:00+00:00
AU_87153,Australia,87153,LERDERDERG NO3 RECORDER,B:/INTENSE data/Original data/Australia/RI_5min_VIC.zip/outputFor87153_999999998752770.txt,-37.4667,144.4,640m,68653,37.17,5min,mm,NA,-999.0,0.0, Changed LST,640.0,m,/g/data/ua8/Precipitation/GSDR/aus5min_postqc/AU_87153.txt,21,mm,AU_87153,1973050112,1981030100,Local Standard Time,1hr,0 days 10:00:00,Australia/Melbourne,1981-02-28 14:00:00+00:00,1973-05-01 02:00:00+00:00
AU_27022,Australia,27022,THURSDAY ISLAND MO,B:/INTENSE data/Original data/Australia/RI_5min_QLD.zip/outputFor27022_999999998752738.txt,-10.5853,142.21,57.6m,275376,7.02,5min,mm,NA,-999.0,0.0, Changed LST,57.6,m,/g/data/ua8/Precipitation/GSDR/aus5min_postqc/AU_27022.txt,21,mm,AU_27022,1961110101,1993040100,Local Standard Time,1hr,0 days 10:00:00,Australia/Brisbane,1993-03-31 14:00:00+00:00,1961-10-31 15:00:00+00:00
AU_15519,Australia,15519,PALMER VALLEY,B:/INTENSE data/Original data/Australia/RI_5min_NT.zip/outputFor15519_999999998752779.txt,-24.7495,133.2317,418m,164342,19.57,5min,mm,NA,-999.0,0.0, Changed LST,418.0,m,/g/data/ua8/Precipitation/GSDR/aus5min_postqc/AU_15519.txt,21,mm,AU_15519,1996103111,2015080100,Local Standard Time,1hr,0 days 09:30:00,Australia/Darwin,2015-07-31 14:30:00+00:00,1996-10-31 01:30:00+00:00
AU_33099,Australia,33099,TEEMBURRA CREEK PLUVIO,B:/INTENSE data/Original data/Australia/RI_5min_QLD.zip/outputFor33099_999999998752738.txt,-21.245,148.6717,220m,196910,15.26,5min,mm,NA,-999.0,0.0, Changed LST,220.0,m,/g/data/ua8/Precipitation/GSDR/aus5min_postqc/AU_33099.txt,21,mm,AU_33099,1962121411,1985060100,Local Standard Time,1hr,0 days 10:00:00,Australia/Brisbane,1985-05-31 14:00:00+00:00,1962-12-14 01:00:00+00:00
AU_24023,Australia,24023,LOXTON RESEARCH CENTRE,B:/INTENSE data/Original data/Australia/RI_5min_SA.zip/outputFor24023_999999998752775.txt,-34.4333,140.6,66m,102210,6.68,5min,mm,NA,-999.0,0.0, Changed LST,66.0,m,/g/data/ua8/Precipitation/GSDR/aus5min_postqc/AU_24023.txt,21,mm,AU_24023,1972110207,1984070100,Local Standard Time,1hr,0 days 09:30:00,Australia/Adelaide,1984-06-30 14:30:00+00:00,1972-11-01 21:30:00+00:00
AU_18083,Australia,18083,WUDINNA AERO,B:/INTENSE data/Original data/Australia/RI_5min_SA.zip/outputFor18083_999999998752775.txt,-33.043,135.4519,86.4m,119982,7.68,5min,mm,NA,-999.0,0.0, Changed LST,86.4,m,/g/data/ua8/Precipitation/GSDR/aus5min_postqc/AU_18083.txt,21,mm,AU_18083,2001112219,2015080100,Local Standard Time,1hr,0 days 09:30:00,Australia/Adelaide,2015-07-31 14:30:00+00:00,2001-11-22 09:30:00+00:00
AU_14651,Australia,14651,SNOWDROP CREEK,B:/INTENSE data/Original data/Australia/RI_5min_NT.zip/outputFor14651_999999998752779.txt,-13.8269,133.3278,384m,44196,1.15,5min,mm,NA,-999.0,0.03, Changed LST,384.0,m,/g/data/ua8/Precipitation/GSDR/aus5min_postqc/AU_14651.txt,21,mm,AU_14651,2003091613,2008100100,Local Standard Time,1hr,0 days 09:30:00,Australia/Darwin,2008-09-30 14:30:00+00:00,2003-09-16 03:30:00+00:00
AU_41348,Australia,41348,WYAGA TM,B:/INTENSE data/Original data/Australia/RI_5min_QLD.zip/outputFor41348_999999998752738.txt,-28.1667,150.6444,267m,1750,8.97,5min,mm,NA,-999.0,0.08, Changed LST,267.0,m,/g/data/ua8/Precipitation/GSDR/aus5min_postqc/AU_41348.txt,21,mm,AU_41348,2000082003,2000110100,Local Standard Time,1hr,0 days 10:00:00,Australia/Brisbane,2000-10-31 14:00:00+00:00,2000-08-19 17:00:00+00:00
AU_55235,Australia,55235,NUNDLE SHIRE COUNCIL,B:/INTENSE data/Original data/Australia/RI_5min_NSW.zip/outputFor55235_999999998752763.txt,-31.4833,151.15,500m,166544,33.07,5min,mm,NA,-999.0,0.0, Changed LST,500.0,m,/g/data/ua8/Precipitation/GSDR/aus5min_postqc/AU_55235.txt,21,mm,AU_55235,1959010117,1978010100,Local Standard Time,1hr,0 days 10:00:00,Australia/Sydney,1977-12-31 14:00:00+00:00,1959-01-01 07:00:00+00:00
AU_47007,Australia,47007,BROKEN HILL (PATTON STREET),B:/INTENSE data/Original data/Australia/RI_5min_NSW.zip/outputFor47007_999999998752763.txt,-31.9759,141.4676,315m,75998,24.55,5min,mm,NA,-999.0,0.0, Changed LST,315.0,m,/g/data/ua8/Precipitation/GSDR/aus5min_postqc/AU_47007.txt,21,mm,AU_47007,1939060111,1948020100,Local Standard Time,1hr,0 days 10:00:00,Australia/NSW,1948-01-31 14:00:00+00:00,1939-06-01 01:00:00+00:00
AU_11003,Australia,11003,EUCLA,B:/INTENSE data/Original data/Australia/RI_5min_WA.zip/outputFor11003_999999998752773.txt,-31.6797,128.8958,93.1m,178311,8.37,5min,mm,NA,-999.0,0.0, Changed LST,93.1,m,/g/data/ua8/Precipitation/GSDR/aus5min_postqc/AU_11003.txt,21,mm,AU_11003,1995032910,2015080100,Local Standard Time,1hr,0 days 08:00:00,Australia/West,2015-07-31 16:00:00+00:00,1995-03-29 02:00:00+00:00
AU_36046,Australia,36046,TIREE,B:/INTENSE data/Original data/Australia/RI_5min_QLD.zip/outputFor36046_999999998752738.txt,-21.6291,145.1166,282m,381701,22.93,5min,mm,NA,-999.0,0.0, Changed LST,282.0,m,/g/data/ua8/Precipitation/GSDR/aus5min_postqc/AU_36046.txt,21,mm,AU_36046,1971101420,2015050100,Local Standard Time,1hr,0 days 10:00:00,Australia/Brisbane,2015-04-30 14:00:00+00:00,1971-10-14 10:00:00+00:00
AU_14129,Australia,14129,BELYUEN,B:/INTENSE data/Original data/Australia/RI_5min_NT.zip/outputFor14129_999999998752779.txt,-12.538,130.6985,25m,30285,1.51,5min,mm,NA,-999.0,0.01, Changed LST,25.0,m,/g/data/ua8/Precipitation/GSDR/aus5min_postqc/AU_14129.txt,21,mm,AU_14129,2005031904,2008090100,Local Standard Time,1hr,0 days 09:30:00,Australia/Darwin,2008-08-31 14:30:00+00:00,2005-03-18 18:30:00+00:00
AU_87155,Australia,87155,LERDERDERG NO 1 RECORDER,B:/INTENSE data/Original data/Australia/RI_5min_VIC.zip/outputFor87155_999999998752770.txt,-37.4667,144.2167,868.7m,61777,30.5,5min,mm,NA,-999.0,0.0, Changed LST,868.7,m,/g/data/ua8/Precipitation/GSDR/aus5min_postqc/AU_87155.txt,21,mm,AU_87155,1974021200,1981030100,Local Standard Time,1hr,0 days 10:00:00,Australia/Melbourne,1981-02-28 14:00:00+00:00,1974-02-11 14:00:00+00:00
AU_41100,Australia,41100,TEXAS POST OFFICE,B:/INTENSE data/Original data/Australia/RI_5min_QLD.zip/outputFor41100_999999998752738.txt,-28.8544,151.1681,295m,372557,9.57,5min,mm,NA,-999.0,0.0, Changed LST,295.0,m,/g/data/ua8/Precipitation/GSDR/aus5min_postqc/AU_41100.txt,21,mm,AU_41100,1972092920,2015040100,Local Standard Time,1hr,0 days 10:00:00,Australia/Brisbane,2015-03-31 14:00:00+00:00,1972-09-29 10:00:00+00:00
AU_23073,Australia,23073,MALLALA AERO,B:/INTENSE data/Original data/Australia/RI_5min_SA.zip/outputFor23073_999999998752775.txt,-34.4167,138.5,44m,4183,10.69,5min,mm,NA,-999.0,0.04, Changed LST,44.0,m,/g/data/ua8/Precipitation/GSDR/aus5min_postqc/AU_23073.txt,21,mm,AU_23073,1976010818,1976070100,Local Standard Time,1hr,0 days 09:30:00,Australia/Adelaide,1976-06-30 14:30:00+00:00,1976-01-08 08:30:00+00:00
AU_40160,Australia,40160,NERANG GILSTON RD,B:/INTENSE data/Original data/Australia/RI_5min_QLD.zip/outputFor40160_999999998752738.txt,-28.0092,153.3175,25m,265403,43.32,5min,mm,NA,-999.0,0.0, Changed LST,25.0,m,/g/data/ua8/Precipitation/GSDR/aus5min_postqc/AU_40160.txt,21,mm,AU_40160,1970112014,2001030100,Local Standard Time,1hr,0 days 10:00:00,Australia/Brisbane,2001-02-28 14:00:00+00:00,1970-11-20 04:00:00+00:00
AU_40651,Australia,40651,JIMNA FORESTRY,B:/INTENSE data/Original data/Australia/RI_5min_QLD.zip/outputFor40651_999999998752738.txt,-26.6644,152.4606,523m,112293,21.73,5min,mm,NA,-999.0,0.0, Changed LST,523.0,m,/g/data/ua8/Precipitation/GSDR/aus5min_postqc/AU_40651.txt,21,mm,AU_40651,2001041104,2014020100,Local Standard Time,1hr,0 days 10:00:00,Australia/Brisbane,2014-01-31 14:00:00+00:00,2001-04-10 18:00:00+00:00
AU_15085,Australia,15085,BRUNETTE DOWNS,B:/INTENSE data/Original data/Australia/RI_5min_NT.zip/outputFor15085_999999998752779.txt,-18.637,135.945,218m,398355,10.07,5min,mm,NA,-999.0,0.0, Changed LST,218.0,m,/g/data/ua8/Precipitation/GSDR/aus5min_postqc/AU_15085.txt,21,mm,AU_15085,1968122022,2014060100,Local Standard Time,1hr,0 days 09:30:00,Australia/Darwin,2014-05-31 14:30:00+00:00,1968-12-20 12:30:00+00:00
AU_71029,Australia,71029,SPENCERS CREEK,B:/INTENSE data/Original data/Australia/RI_5min_NSW.zip/outputFor71029_999999998752763.txt,-36.4333,148.35,1767.8m,88359,29.29,5min,mm,NA,-999.0,0.0, Changed LST,1767.8,m,/g/data/ua8/Precipitation/GSDR/aus5min_postqc/AU_71029.txt,21,mm,AU_71029,1953010210,1963020100,Local Standard Time,1hr,0 days 10:00:00,Australia/Sydney,1963-01-31 14:00:00+00:00,1953-01-02 00:00:00+00:00
AU_86323,Australia,86323,LATROBE RIVER NO.2,B:/INTENSE data/Original data/Australia/RI_5min_VIC.zip/outputFor86323_999999998752770.txt,-37.85,145.85,716m,68075,18.99,5min,mm,NA,-999.0,0.0, Changed LST,716.0,m,/g/data/ua8/Precipitation/GSDR/aus5min_postqc/AU_86323.txt,21,mm,AU_86323,1973032714,1981010100,Local Standard Time,1hr,0 days 10:00:00,Australia/Melbourne,1980-12-31 14:00:00+00:00,1973-03-27 04:00:00+00:00
AU_58189,Australia,58189,SOUTH GRAFTON (DIVINES STATE FOREST),B:/INTENSE data/Original data/Australia/RI_5min_NSW.zip/outputFor58189_999999998752763.txt,-29.7833,152.9467,80m,13997,8.35,5min,mm,NA,-999.0,0.0, Changed LST,80.0,m,/g/data/ua8/Precipitation/GSDR/aus5min_postqc/AU_58189.txt,21,mm,AU_58189,1982032720,1983110100,Local Standard Time,1hr,0 days 10:00:00,Australia/Sydney,1983-10-31 14:00:00+00:00,1982-03-27 10:00:00+00:00
AU_15002,Australia,15002,WISO BORE,B:/INTENSE data/Original data/Australia/RI_5min_NT.zip/outputFor15002_999999998752779.txt,-19.4157,133.5541,272m,67035,5.33,5min,mm,NA,-999.0,0.2, Changed LST,272.0,m,/g/data/ua8/Precipitation/GSDR/aus5min_postqc/AU_15002.txt,21,mm,AU_15002,2007120722,2015080100,Local Standard Time,1hr,0 days 09:30:00,Australia/Darwin,2015-07-31 14:30:00+00:00,2007-12-07 12:30:00+00:00
AU_72163,Australia,72163,TOOMA (EUDLO),B:/INTENSE data/Original data/Australia/RI_5min_NSW.zip/outputFor72163_999999998752763.txt,-35.899,148.182,585m,161425,5.55,5min,mm,NA,-999.0,0.0, Changed LST,585.0,m,/g/data/ua8/Precipitation/GSDR/aus5min_postqc/AU_72163.txt,21,mm,AU_72163,1997030200,2015080100,Local Standard Time,1hr,0 days 10:00:00,Australia/Sydney,2015-07-31 14:00:00+00:00,1997-03-01 14:00:00+00:00
AU_17010,Australia,17010,GAMMON RANGES (BALCANOONA),B:/INTENSE data/Original data/Australia/RI_5min_SA.zip/outputFor17010_999999998752775.txt,-30.5328,139.3029,180m,117880,17.64,5min,mm,NA,-999.0,0.01, Changed LST,180.0,m,/g/data/ua8/Precipitation/GSDR/aus5min_postqc/AU_17010.txt,21,mm,AU_17010,2001062009,2014120100,Local Standard Time,1hr,0 days 09:30:00,Australia/Adelaide,2014-11-30 14:30:00+00:00,2001-06-19 23:30:00+00:00
AU_10093,Australia,10093,MERREDIN RESEARCH STATION,B:/INTENSE data/Original data/Australia/RI_5min_WA.zip/outputFor10093_999999998752773.txt,-31.4994,118.2242,318m,193359,29.09,5min,mm,NA,-999.0,0.0, Changed LST,318.0,m,/g/data/ua8/Precipitation/GSDR/aus5min_postqc/AU_10093.txt,21,mm,AU_10093,1963031110,1985040100,Local Standard Time,1hr,0 days 08:00:00,Australia/Perth,1985-03-31 16:00:00+00:00,1963-03-11 02:00:00+00:00
AU_14504,Australia,14504,GALIWINKU,B:/INTENSE data/Original data/Australia/RI_5min_NT.zip/outputFor14504_999999998752779.txt,-12.028,135.5648,18m,26304,0.18,5min,mm,NA,-999.0,0.01, Changed LST,18.0,m,/g/data/ua8/Precipitation/GSDR/aus5min_postqc/AU_14504.txt,21,mm,AU_14504,2002050101,2005050100,Local Standard Time,1hr,0 days 09:30:00,Australia/Darwin,2005-04-30 14:30:00+00:00,2002-04-30 15:30:00+00:00
AU_17043,Australia,17043,OODNADATTA AIRPORT,B:/INTENSE data/Original data/Australia/RI_5min_SA.zip/outputFor17043_999999998752775.txt,-27.5553,135.4456,116.5m,475479,31.51,5min,mm,NA,-999.0,0.0, Changed LST,116.5,m,/g/data/ua8/Precipitation/GSDR/aus5min_postqc/AU_17043.txt,21,mm,AU_17043,1961010210,2015040100,Local Standard Time,1hr,0 days 09:30:00,Australia/Adelaide,2015-03-31 14:30:00+00:00,1961-01-02 00:30:00+00:00
AU_14097,Australia,14097,DS23,B:/INTENSE data/Original data/Australia/RI_5min_NT.zip/outputFor14097_999999998752779.txt,-12.6231,131.3047,14m,6492,10.15,5min,mm,NA,-999.0,0.2, Changed LST,14.0,m,/g/data/ua8/Precipitation/GSDR/aus5min_postqc/AU_14097.txt,21,mm,AU_14097,2006110313,2007080100,Local Standard Time,1hr,0 days 09:30:00,Australia/Darwin,2007-07-31 14:30:00+00:00,2006-11-03 03:30:00+00:00
AU_61178,Australia,61178,WOLLOMBI (BIG YENGO LTP),B:/INTENSE data/Original data/Australia/RI_5min_NSW.zip/outputFor61178_999999998752763.txt,-32.9333,150.9167,366m,155616,17.19,5min,mm,NA,-999.0,0.0, Changed LST,366.0,m,/g/data/ua8/Precipitation/GSDR/aus5min_postqc/AU_61178.txt,21,mm,AU_61178,1958030101,1975120100,Local Standard Time,1hr,0 days 10:00:00,Australia/Sydney,1975-11-30 14:00:00+00:00,1958-02-28 15:00:00+00:00
AU_24580,Australia,24580,STRATHALBYN RACECOURSE,B:/INTENSE data/Original data/Australia/RI_5min_SA.zip/outputFor24580_999999998752775.txt,-35.2836,138.8934,58m,114631,9.03,5min,mm,NA,-999.0,0.01, Changed LST,58.0,m,/g/data/ua8/Precipitation/GSDR/aus5min_postqc/AU_24580.txt,21,mm,AU_24580,2002040218,2015050100,Local Standard Time,1hr,0 days 09:30:00,Australia/Adelaide,2015-04-30 14:30:00+00:00,2002-04-02 08:30:00+00:00
AU_8160,Australia,8160,MERIDALE,B:/INTENSE data/Original data/Australia/RI_5min_WA.zip/outputFor8160_999999998752773.txt,-30.5097,116.3728,282m,110952,37.05,5min,mm,NA,-999.0,0.0, Changed LST,282.0,m,/g/data/ua8/Precipitation/GSDR/aus5min_postqc/AU_8160.txt,21,mm,AU_8160,1999070501,2012030100,Local Standard Time,1hr,0 days 08:00:00,Australia/Perth,2012-02-29 16:00:00+00:00,1999-07-04 17:00:00+00:00
AU_29041,Australia,29041,NORMANTON POST OFFICE,B:/INTENSE data/Original data/Australia/RI_5min_QLD.zip/outputFor29041_999999998752738.txt,-17.6706,141.0672,8.4m,300922,7.69,5min,mm,NA,-999.0,0.0, Changed LST,8.4,m,/g/data/ua8/Precipitation/GSDR/aus5min_postqc/AU_29041.txt,21,mm,AU_29041,1964100315,1999020100,Local Standard Time,1hr,0 days 10:00:00,Australia/Brisbane,1999-01-31 14:00:00+00:00,1964-10-03 05:00:00+00:00
AU_22816,Australia,22816,PARNDANA (ALLANDALE),B:/INTENSE data/Original data/Australia/RI_5min_SA.zip/outputFor22816_999999998752775.txt,-35.7734,137.033,232m,252208,3.15,5min,mm,NA,-999.0,0.0, Changed LST,232.0,m,/g/data/ua8/Precipitation/GSDR/aus5min_postqc/AU_22816.txt,21,mm,AU_22816,1973022209,2001120100,Local Standard Time,1hr,0 days 09:30:00,Australia/Adelaide,2001-11-30 14:30:00+00:00,1973-02-21 23:30:00+00:00
AU_39334,Australia,39334,HAZELDEAN,B:/INTENSE data/Original data/Australia/RI_5min_QLD.zip/outputFor39334_999999998752738.txt,-24.0213,150.9603,66m,177699,8.65,5min,mm,NA,-999.0,0.0, Changed LST,66.0,m,/g/data/ua8/Precipitation/GSDR/aus5min_postqc/AU_39334.txt,21,mm,AU_39334,1994112122,2015030100,Local Standard Time,1hr,0 days 10:00:00,Australia/Brisbane,2015-02-28 14:00:00+00:00,1994-11-21 12:00:00+00:00
AU_4000,Australia,4000,ABYDOS,B:/INTENSE data/Original data/Australia/RI_5min_WA.zip/outputFor4000_999999998752773.txt,-21.4167,118.9333,226m,37434,32.22,5min,mm,NA,-999.0,0.01, Changed LST,226.0,m,/g/data/ua8/Precipitation/GSDR/aus5min_postqc/AU_4000.txt,21,mm,AU_4000,1963112307,1968030100,Local Standard Time,1hr,0 days 08:00:00,Australia/Perth,1968-02-29 16:00:00+00:00,1963-11-22 23:00:00+00:00
AU_72116,Australia,72116,JAGUNGAL SMHEA,B:/INTENSE data/Original data/Australia/RI_5min_NSW.zip/outputFor72116_999999998752763.txt,-36.1333,148.3833,1639.8m,135324,7.39,5min,mm,NA,-999.0,0.0, Changed LST,1639.8,m,/g/data/ua8/Precipitation/GSDR/aus5min_postqc/AU_72116.txt,21,mm,AU_72116,1959052513,1974110100,Local Standard Time,1hr,0 days 10:00:00,Australia/Sydney,1974-10-31 14:00:00+00:00,1959-05-25 03:00:00+00:00
AU_80015,Australia,80015,ECHUCA AERODROME,B:/INTENSE data/Original data/Australia/RI_5min_VIC.zip/outputFor80015_999999998752770.txt,-36.1647,144.7642,96m,61619,21.97,5min,mm,NA,-999.0,0.2, Changed LST,96.0,m,/g/data/ua8/Precipitation/GSDR/aus5min_postqc/AU_80015.txt,21,mm,AU_80015,2008082014,2015090100,Local Standard Time,1hr,0 days 10:00:00,Australia/Melbourne,2015-08-31 14:00:00+00:00,2008-08-20 04:00:00+00:00
AU_10311,Australia,10311,YORK,B:/INTENSE data/Original data/Australia/RI_5min_WA.zip/outputFor10311_999999998752773.txt,-31.8997,116.765,179m,72610,25.65,5min,mm,NA,-999.0,0.0, Changed LST,179.0,m,/g/data/ua8/Precipitation/GSDR/aus5min_postqc/AU_10311.txt,21,mm,AU_10311,2000011815,2008050100,Local Standard Time,1hr,0 days 08:00:00,Australia/Perth,2008-04-30 16:00:00+00:00,2000-01-18 07:00:00+00:00
AU_14125,Australia,14125,DS15,B:/INTENSE data/Original data/Australia/RI_5min_NT.zip/outputFor14125_999999998752779.txt,-12.5976,131.2767,20m,6541,10.14,5min,mm,NA,-999.0,0.2, Changed LST,20.0,m,/g/data/ua8/Precipitation/GSDR/aus5min_postqc/AU_14125.txt,21,mm,AU_14125,2006110112,2007080100,Local Standard Time,1hr,0 days 09:30:00,Australia/Darwin,2007-07-31 14:30:00+00:00,2006-11-01 02:30:00+00:00
AU_87107,Australia,87107,POINT COOK RAAF ACADEMY,B:/INTENSE data/Original data/Australia/RI_5min_VIC.zip/outputFor87107_999999998752770.txt,-37.9333,144.75,2.4m,97540,7.82,5min,mm,NA,-999.0,0.0, Changed LST,2.4,m,/g/data/ua8/Precipitation/GSDR/aus5min_postqc/AU_87107.txt,21,mm,AU_87107,1965041521,1976060100,Local Standard Time,1hr,0 days 10:00:00,Australia/Melbourne,1976-05-31 14:00:00+00:00,1965-04-15 11:00:00+00:00
AU_83067,Australia,83067,BRIGHT,B:/INTENSE data/Original data/Australia/RI_5min_VIC.zip/outputFor83067_999999998752770.txt,-36.7313,146.9614,319m,224602,19.13,5min,mm,NA,-999.0,0.0, Changed LST,319.0,m,/g/data/ua8/Precipitation/GSDR/aus5min_postqc/AU_83067.txt,21,mm,AU_83067,1969061815,1995020100,Local Standard Time,1hr,0 days 10:00:00,Australia/Melbourne,1995-01-31 14:00:00+00:00,1969-06-18 05:00:00+00:00
AU_17126,Australia,17126,MARREE AERO,B:/INTENSE data/Original data/Australia/RI_5min_SA.zip/outputFor17126_999999998752775.txt,-29.6587,138.0684,50m,131505,3.48,5min,mm,NA,-999.0,0.01, Changed LST,50.0,m,/g/data/ua8/Precipitation/GSDR/aus5min_postqc/AU_17126.txt,21,mm,AU_17126,2000053016,2015060100,Local Standard Time,1hr,0 days 09:30:00,Australia/Adelaide,2015-05-31 14:30:00+00:00,2000-05-30 06:30:00+00:00
AU_11004,Australia,11004,FORREST AERO,B:/INTENSE data/Original data/Australia/RI_5min_WA.zip/outputFor11004_999999998752773.txt,-30.8389,128.1139,156m,300183,6.84,5min,mm,NA,-999.0,0.0, Changed LST,156.0,m,/g/data/ua8/Precipitation/GSDR/aus5min_postqc/AU_11004.txt,21,mm,AU_11004,1961010110,1995040100,Local Standard Time,1hr,0 days 08:00:00,Australia/Perth,1995-03-31 16:00:00+00:00,1961-01-01 02:00:00+00:00
AU_9268,Australia,9268,JULIMAR FOREST,B:/INTENSE data/Original data/Australia/RI_5min_WA.zip/outputFor9268_999999998752773.txt,-31.4566,116.3701,342m,5484,2.86,5min,mm,NA,-999.0,0.2, Changed LST,342.0,m,/g/data/ua8/Precipitation/GSDR/aus5min_postqc/AU_9268.txt,21,mm,AU_9268,2007111513,2008070100,Local Standard Time,1hr,0 days 08:00:00,Australia/Perth,2008-06-30 16:00:00+00:00,2007-11-15 05:00:00+00:00
AU_2030,Australia,2030,YULMBU,B:/INTENSE data/Original data/Australia/RI_5min_WA.zip/outputFor2030_999999998752773.txt,-17.2986,126.9158,450m,121234,22.52,5min,mm,NA,-999.0,0.01, Changed LST,450.0,m,/g/data/ua8/Precipitation/GSDR/aus5min_postqc/AU_2030.txt,21,mm,AU_2030,1998070215,2012050100,Local Standard Time,1hr,0 days 08:00:00,Australia/Perth,2012-04-30 16:00:00+00:00,1998-07-02 07:00:00+00:00
AU_40584,Australia,40584,HINZE DAM,B:/INTENSE data/Original data/Australia/RI_5min_QLD.zip/outputFor40584_999999998752738.txt,-28.0481,153.2875,110.7m,355233,7.92,5min,mm,NA,-999.0,0.0, Changed LST,110.7,m,/g/data/ua8/Precipitation/GSDR/aus5min_postqc/AU_40584.txt,21,mm,AU_40584,1974092116,2015040100,Local Standard Time,1hr,0 days 10:00:00,Australia/Brisbane,2015-03-31 14:00:00+00:00,1974-09-21 06:00:00+00:00
AU_41090,Australia,41090,DARR CREEK AL,B:/INTENSE data/Original data/Australia/RI_5min_QLD.zip/outputFor41090_999999998752738.txt,-26.5392,151.1347,393m,19652,35.13,5min,mm,NA,-999.0,0.06, Changed LST,393.0,m,/g/data/ua8/Precipitation/GSDR/aus5min_postqc/AU_41090.txt,21,mm,AU_41090,1998080505,2000110100,Local Standard Time,1hr,0 days 10:00:00,Australia/Brisbane,2000-10-31 14:00:00+00:00,1998-08-04 19:00:00+00:00
AU_68102,Australia,68102,BOWRAL (PARRY DRIVE),B:/INTENSE data/Original data/Australia/RI_5min_NSW.zip/outputFor68102_999999998752763.txt,-34.4869,150.4019,690m,195668,10.98,5min,mm,NA,-999.0,0.0, Changed LST,690.0,m,/g/data/ua8/Precipitation/GSDR/aus5min_postqc/AU_68102.txt,21,mm,AU_68102,1992120405,2015040100,Local Standard Time,1hr,0 days 10:00:00,Australia/Sydney,2015-03-31 14:00:00+00:00,1992-12-03 19:00:00+00:00
AU_34099,Australia,34099,MT FLORA,B:/INTENSE data/Original data/Australia/RI_5min_QLD.zip/outputFor34099_999999998752738.txt,-21.8948,148.6034,180m,115909,7.3,5min,mm,NA,-999.0,0.0, Changed LST,180.0,m,/g/data/ua8/Precipitation/GSDR/aus5min_postqc/AU_34099.txt,21,mm,AU_34099,1998071112,2011100100,Local Standard Time,1hr,0 days 10:00:00,Australia/Brisbane,2011-09-30 14:00:00+00:00,1998-07-11 02:00:00+00:00
AU_81123,Australia,81123,BENDIGO AIRPORT,B:/INTENSE data/Original data/Australia/RI_5min_VIC.zip/outputFor81123_999999998752770.txt,-36.7395,144.3266,208m,199448,7.2,5min,mm,NA,-999.0,0.0, Changed LST,208.0,m,/g/data/ua8/Precipitation/GSDR/aus5min_postqc/AU_81123.txt,21,mm,AU_81123,1992092817,2015070100,Local Standard Time,1hr,0 days 10:00:00,Australia/Melbourne,2015-06-30 14:00:00+00:00,1992-09-28 07:00:00+00:00
AU_17005,Australia,17005,LEIGH CREEK AERO,B:/INTENSE data/Original data/Australia/RI_5min_SA.zip/outputFor17005_999999998752775.txt,-30.4667,138.4075,194m,48216,1.13,5min,mm,NA,-999.0,0.01, Changed LST,194.0,m,/g/data/ua8/Precipitation/GSDR/aus5min_postqc/AU_17005.txt,21,mm,AU_17005,2000060101,2005120100,Local Standard Time,1hr,0 days 09:30:00,Australia/Adelaide,2005-11-30 14:30:00+00:00,2000-05-31 15:30:00+00:00
AU_41060,Australia,41060,LEYBURN,B:/INTENSE data/Original data/Australia/RI_5min_QLD.zip/outputFor41060_999999998752738.txt,-28.0092,151.5861,366m,330960,21.06,5min,mm,NA,-999.0,0.0, Changed LST,366.0,m,/g/data/ua8/Precipitation/GSDR/aus5min_postqc/AU_41060.txt,21,mm,AU_41060,1959030101,1996120100,Local Standard Time,1hr,0 days 10:00:00,Australia/Brisbane,1996-11-30 14:00:00+00:00,1959-02-28 15:00:00+00:00
AU_17107,Australia,17107,LEIGH CREEK SOUTH,B:/INTENSE data/Original data/Australia/RI_5min_SA.zip/outputFor17107_999999998752775.txt,-30.5925,138.4053,250m,139615,9.8,5min,mm,NA,-999.0,0.0, Changed LST,250.0,m,/g/data/ua8/Precipitation/GSDR/aus5min_postqc/AU_17107.txt,21,mm,AU_17107,1972092718,1988090100,Local Standard Time,1hr,0 days 09:30:00,Australia/Adelaide,1988-08-31 14:30:00+00:00,1972-09-27 08:30:00+00:00
AU_43020,Australia,43020,MITCHELL POST OFFICE,B:/INTENSE data/Original data/Australia/RI_5min_QLD.zip/outputFor43020_999999998752738.txt,-26.4888,147.9777,336.5m,451603,11.82,5min,mm,NA,-999.0,0.0, Changed LST,336.5,m,/g/data/ua8/Precipitation/GSDR/aus5min_postqc/AU_43020.txt,21,mm,AU_43020,1963082406,2015030100,Local Standard Time,1hr,0 days 10:00:00,Australia/Brisbane,2015-02-28 14:00:00+00:00,1963-08-23 20:00:00+00:00
AU_1012,Australia,1012,MITCHELL PLATEAU,B:/INTENSE data/Original data/Australia/RI_5min_WA.zip/outputFor1012_999999998752773.txt,-14.7925,125.8258,315m,288389,48.92,5min,mm,NA,-999.0,0.0, Changed LST,315.0,m,/g/data/ua8/Precipitation/GSDR/aus5min_postqc/AU_1012.txt,21,mm,AU_1012,1969110620,2002100100,Local Standard Time,1hr,0 days 08:00:00,Australia/Perth,2002-09-30 16:00:00+00:00,1969-11-06 12:00:00+00:00
AU_9971,Australia,9971,ACTON PARK,B:/INTENSE data/Original data/Australia/RI_5min_WA.zip/outputFor9971_999999998752773.txt,-33.7844,115.4075,120m,114538,3.48,5min,mm,NA,-999.0,0.0, Changed LST,120.0,m,/g/data/ua8/Precipitation/GSDR/aus5min_postqc/AU_9971.txt,21,mm,AU_9971,1998070715,2011080100,Local Standard Time,1hr,0 days 08:00:00,Australia/Perth,2011-07-31 16:00:00+00:00,1998-07-07 07:00:00+00:00
AU_8307,Australia,8307,COOLANGATTA ALERT,B:/INTENSE data/Original data/Australia/RI_5min_WA.zip/outputFor8307_999999998752773.txt,-28.89,115.4397,260m,89266,0.18,5min,mm,NA,-999.0,0.01, Changed LST,260.0,m,/g/data/ua8/Precipitation/GSDR/aus5min_postqc/AU_8307.txt,21,mm,AU_8307,2002072615,2012100100,Local Standard Time,1hr,0 days 08:00:00,Australia/Perth,2012-09-30 16:00:00+00:00,2002-07-26 07:00:00+00:00
AU_31209,Australia,31209,COOKTOWN AIRPORT,B:/INTENSE data/Original data/Australia/RI_5min_QLD.zip/outputFor31209_999999998752738.txt,-15.4461,145.1861,4.8m,108816,27.84,5min,mm,NA,-999.0,0.0, Changed LST,4.8,m,/g/data/ua8/Precipitation/GSDR/aus5min_postqc/AU_31209.txt,21,mm,AU_31209,2002100101,2015030100,Local Standard Time,1hr,0 days 10:00:00,Australia/Brisbane,2015-02-28 14:00:00+00:00,2002-09-30 15:00:00+00:00
AU_40469,Australia,40469,MARODIAN HOMESTEAD,B:/INTENSE data/Original data/Australia/RI_5min_QLD.zip/outputFor40469_999999998752738.txt,-25.8694,152.3172,77m,376421,14.06,5min,mm,NA,-999.0,0.0, Changed LST,77.0,m,/g/data/ua8/Precipitation/GSDR/aus5min_postqc/AU_40469.txt,21,mm,AU_40469,1972032120,2015030100,Local Standard Time,1hr,0 days 10:00:00,Australia/Brisbane,2015-02-28 14:00:00+00:00,1972-03-21 10:00:00+00:00
AU_56221,Australia,56221,DUMARESQ (KIEWA),B:/INTENSE data/Original data/Australia/RI_5min_NSW.zip/outputFor56221_999999998752763.txt,-30.4833,151.5833,914m,23010,35.5,5min,mm,NA,-999.0,0.01, Changed LST,914.0,m,/g/data/ua8/Precipitation/GSDR/aus5min_postqc/AU_56221.txt,21,mm,AU_56221,1978011607,1980090100,Local Standard Time,1hr,0 days 10:00:00,Australia/Sydney,1980-08-31 14:00:00+00:00,1978-01-15 21:00:00+00:00
AU_33314,Australia,33314,BRAMPTON VALE TM,B:/INTENSE data/Original data/Australia/RI_5min_QLD.zip/outputFor33314_999999998752738.txt,-22.7611,150.6089,80m,20237,4.58,5min,mm,NA,-999.0,0.02, Changed LST,80.0,m,/g/data/ua8/Precipitation/GSDR/aus5min_postqc/AU_33314.txt,21,mm,AU_33314,1998071120,2000110100,Local Standard Time,1hr,0 days 10:00:00,Australia/Brisbane,2000-10-31 14:00:00+00:00,1998-07-11 10:00:00+00:00
AU_72159,Australia,72159,ADELONG (KATHVALE),B:/INTENSE data/Original data/Australia/RI_5min_NSW.zip/outputFor72159_999999998752763.txt,-35.3205,147.9419,325m,194920,23.49,5min,mm,NA,-999.0,0.0, Changed LST,325.0,m,/g/data/ua8/Precipitation/GSDR/aus5min_postqc/AU_72159.txt,21,mm,AU_72159,1993010409,2015040100,Local Standard Time,1hr,0 days 10:00:00,Australia/Sydney,2015-03-31 14:00:00+00:00,1993-01-03 23:00:00+00:00
AU_6011,Australia,6011,CARNARVON AIRPORT,B:/INTENSE data/Original data/Australia/RI_5min_WA.zip/outputFor6011_999999998752773.txt,-24.8878,113.67,4m,521511,9.4,5min,mm,NA,-999.0,0.0, Changed LST,4.0,m,/g/data/ua8/Precipitation/GSDR/aus5min_postqc/AU_6011.txt,21,mm,AU_6011,1956030410,2015090100,Local Standard Time,1hr,0 days 08:00:00,Australia/Perth,2015-08-31 16:00:00+00:00,1956-03-04 02:00:00+00:00
AU_17110,Australia,17110,LEIGH CREEK AIRPORT,B:/INTENSE data/Original data/Australia/RI_5min_SA.zip/outputFor17110_999999998752775.txt,-30.5963,138.4219,258.8m,83381,6.73,5min,mm,NA,-999.0,0.02, Changed LST,258.8,m,/g/data/ua8/Precipitation/GSDR/aus5min_postqc/AU_17110.txt,21,mm,AU_17110,2005112520,2015060100,Local Standard Time,1hr,0 days 09:30:00,Australia/Adelaide,2015-05-31 14:30:00+00:00,2005-11-25 10:30:00+00:00
AU_14299,Australia,14299,NGUKURR AIRPORT,B:/INTENSE data/Original data/Australia/RI_5min_NT.zip/outputFor14299_999999998752779.txt,-14.7236,134.7456,14.5m,17003,25.35,5min,mm,NA,-999.0,0.2, Changed LST,14.5,m,/g/data/ua8/Precipitation/GSDR/aus5min_postqc/AU_14299.txt,21,mm,AU_14299,2012062214,2014060100,Local Standard Time,1hr,0 days 09:30:00,Australia/Darwin,2014-05-31 14:30:00+00:00,2012-06-22 04:30:00+00:00
AU_14042,Australia,14042,OENPELLI,B:/INTENSE data/Original data/Australia/RI_5min_NT.zip/outputFor14042_999999998752779.txt,-12.3236,133.0579,6.7m,158520,24.12,5min,mm,NA,-999.0,0.0, Changed LST,6.7,m,/g/data/ua8/Precipitation/GSDR/aus5min_postqc/AU_14042.txt,21,mm,AU_14042,1996100101,2014110100,Local Standard Time,1hr,0 days 09:30:00,Australia/Darwin,2014-10-31 14:30:00+00:00,1996-09-30 15:30:00+00:00
AU_40428,Australia,40428,BRIAN PASTURES,B:/INTENSE data/Original data/Australia/RI_5min_QLD.zip/outputFor40428_999999998752738.txt,-25.655,151.745,131m,173004,11.27,5min,mm,NA,-999.0,0.0, Changed LST,131.0,m,/g/data/ua8/Precipitation/GSDR/aus5min_postqc/AU_40428.txt,21,mm,AU_40428,1995070613,2015040100,Local Standard Time,1hr,0 days 10:00:00,Australia/Brisbane,2015-03-31 14:00:00+00:00,1995-07-06 03:00:00+00:00
AU_40013,Australia,40013,BAUPLE,B:/INTENSE data/Original data/Australia/RI_5min_QLD.zip/outputFor40013_999999998752738.txt,-25.8158,152.6233,71m,5132,3.9,5min,mm,NA,-999.0,0.01, Changed LST,71.0,m,/g/data/ua8/Precipitation/GSDR/aus5min_postqc/AU_40013.txt,21,mm,AU_40013,1972060105,1973010100,Local Standard Time,1hr,0 days 10:00:00,Australia/Brisbane,1972-12-31 14:00:00+00:00,1972-05-31 19:00:00+00:00
AU_79079,Australia,79079,TOTTINGTON,B:/INTENSE data/Original data/Australia/RI_5min_VIC.zip/outputFor79079_999999998752770.txt,-36.7913,143.1207,228.6m,373136,10.09,5min,mm,NA,-999.0,0.0, Changed LST,228.6,m,/g/data/ua8/Precipitation/GSDR/aus5min_postqc/AU_79079.txt,21,mm,AU_79079,1973020517,2015090100,Local Standard Time,1hr,0 days 10:00:00,Australia/Melbourne,2015-08-31 14:00:00+00:00,1973-02-05 07:00:00+00:00
AU_200842,Australia,200842,THE GROTTO,B:/INTENSE data/Original data/Australia/RI_5min_WA.zip/outputFor200842_999999998752773.txt,-10.4183,105.7022,20m,81736,16.57,5min,mm,NA,-999.0,0.01, Changed LST,20.0,m,/g/data/ua8/Precipitation/GSDR/aus5min_postqc/AU_200842.txt,21,mm,AU_200842,1997010209,2006050100,Local Standard Time,1hr,0 days 07:00:00,Indian/Christmas,2006-04-30 17:00:00+00:00,1997-01-02 02:00:00+00:00
AU_2073,Australia,2073,MARGARET RIVER AIRSTRIP,B:/INTENSE data/Original data/Australia/RI_5min_WA.zip/outputFor2073_999999998752773.txt,-18.6219,126.8831,270m,48654,48.38,5min,mm,NA,-999.0,0.2, Changed LST,270.0,m,/g/data/ua8/Precipitation/GSDR/aus5min_postqc/AU_2073.txt,21,mm,AU_2073,2006101219,2012050100,Local Standard Time,1hr,0 days 08:00:00,Australia/Perth,2012-04-30 16:00:00+00:00,2006-10-12 11:00:00+00:00
AU_2020,Australia,2020,MOOLA BULLA,B:/INTENSE data/Original data/Australia/RI_5min_WA.zip/outputFor2020_999999998752773.txt,-18.1894,127.5011,430m,122069,19.34,5min,mm,NA,-999.0,0.01, Changed LST,430.0,m,/g/data/ua8/Precipitation/GSDR/aus5min_postqc/AU_2020.txt,21,mm,AU_2020,1997072720,2011070100,Local Standard Time,1hr,0 days 08:00:00,Australia/Perth,2011-06-30 16:00:00+00:00,1997-07-27 12:00:00+00:00
AU_86325,Australia,86325,LATROBE RIVER (RECORDER NO 3),B:/INTENSE data/Original data/Australia/RI_5min_VIC.zip/outputFor86325_999999998752770.txt,-37.9167,145.85,814m,67202,52.22,5min,mm,NA,-999.0,0.0, Changed LST,814.0,m,/g/data/ua8/Precipitation/GSDR/aus5min_postqc/AU_86325.txt,21,mm,AU_86325,1973050223,1981010100,Local Standard Time,1hr,0 days 10:00:00,Australia/Melbourne,1980-12-31 14:00:00+00:00,1973-05-02 13:00:00+00:00
AU_91168,Australia,91168,GOWRIE PARK,B:/INTENSE data/Original data/Australia/RI_5min_TAS-ANT.zip/outputFor91168_999999998752777.txt,-41.4706,146.2147,284m,59216,52.05,5min,mm,NA,-999.0,0.0, Changed LST,284.0,m,/g/data/ua8/Precipitation/GSDR/aus5min_postqc/AU_91168.txt,21,mm,AU_91168,2001082917,2008060100,Local Standard Time,1hr,0 days 10:00:00,Australia/Hobart,2008-05-31 14:00:00+00:00,2001-08-29 07:00:00+00:00
