,Country,Original Station Number,Original Station Name,Path to original data,Latitude,Longitude,Elevation,Number of records,Percent missing data,Original Timestep,Original Units,Daylight Saving info,No data value,Resolution,Other,height,height units,file,header_lines,units,ID,Start,End,timezone,timestep,utc_offset,Inferred_timezone,End_time,Start_time,Distance
AU_73007,Australia,73007,BURRINJUCK DAM,B:/INTENSE data/Original data/Australia/RI_5min_NSW.zip/outputFor73007_999999998752763.txt,-34.9997,148.5984,390m,895390,31.64,5min,mm,,-999.0,0.0, Changed LST,390.0,m,/g/data/ua8/Precipitation/GSDR/aus5min_postqc/AU_73007.txt,21,mm,AU_73007,1911051003,2013070100,Local Standard Time,1hr,0 days 10:00:00,Australia/Sydney,2013-06-30 14:00:00+00:00,1911-05-09 17:00:00+00:00,110848.13019054907
AU_72163,Australia,72163,TOOMA (EUDLO),B:/INTENSE data/Original data/Australia/RI_5min_NSW.zip/outputFor72163_999999998752763.txt,-35.899,148.182,585m,161425,5.55,5min,mm,,-999.0,0.0, Changed LST,585.0,m,/g/data/ua8/Precipitation/GSDR/aus5min_postqc/AU_72163.txt,21,mm,AU_72163,1997030200,2015080100,Local Standard Time,1hr,0 days 10:00:00,Australia/Sydney,2015-07-31 14:00:00+00:00,1997-03-01 14:00:00+00:00,123106.83500583768
AU_70199,Australia,70199,NUMERALLA (BADJA COMPOSITE),B:/INTENSE data/Original data/Australia/RI_5min_NSW.zip/outputFor70199_999999998752763.txt,-36.0767,149.5134,1040m,432268,14.39,5min,mm,,-999.0,0.0, Changed LST,1040.0,m,/g/data/ua8/Precipitation/GSDR/aus5min_postqc/AU_70199.txt,21,mm,AU_70199,1965120721,2015040100,Local Standard Time,1hr,0 days 10:00:00,Australia/Sydney,2015-03-31 14:00:00+00:00,1965-12-07 11:00:00+00:00,46091.53495500296
AU_69148,Australia,69148,MORUYA AIRPORT AWS,B:/INTENSE data/Original data/Australia/RI_5min_NSW.zip/outputFor69148_999999998752763.txt,-35.9004,150.1437,4m,136409,14.15,5min,mm,,-999.0,0.0, Changed LST,4.0,m,/g/data/ua8/Precipitation/GSDR/aus5min_postqc/AU_69148.txt,21,mm,AU_69148,1999120808,2015070100,Local Standard Time,1hr,0 days 10:00:00,Australia/Sydney,2015-06-30 14:00:00+00:00,1999-12-07 22:00:00+00:00,62974.13219884002
AU_69049,Australia,69049,NERRIGA COMPOSITE,B:/INTENSE data/Original data/Australia/RI_5min_NSW.zip/outputFor69049_999999998752763.txt,-35.1165,150.0847,630m,355499,38.44,5min,mm,,-999.0,0.0, Changed LST,630.0,m,/g/data/ua8/Precipitation/GSDR/aus5min_postqc/AU_69049.txt,21,mm,AU_69049,1971021014,2011090100,Local Standard Time,1hr,0 days 10:00:00,Australia/Sydney,2011-08-31 14:00:00+00:00,1971-02-10 04:00:00+00:00,79754.64520512595
AU_68076,Australia,68076,NOWRA RAN AIR STATION,B:/INTENSE data/Original data/Australia/RI_5min_NSW.zip/outputFor68076_999999998752763.txt,-34.9449,150.545,109m,293577,34.14,5min,mm,,-999.0,0.0, Changed LST,109.0,m,/g/data/ua8/Precipitation/GSDR/aus5min_postqc/AU_68076.txt,21,mm,AU_68076,1964080516,1998020100,Local Standard Time,1hr,0 days 10:00:00,Australia/Sydney,1998-01-31 14:00:00+00:00,1964-08-05 06:00:00+00:00,123060.5494559144
AU_70351,Australia,70351,CANBERRA AIRPORT,B:/INTENSE data/Original data/Australia/RI_5min_NSW.zip/outputFor70351_999999998752763.txt,-35.3089,149.2004,577.1m,45327,0.59,5min,mm,,-999.0,0.2, Changed LST,577.1,m,/g/data/ua8/Precipitation/GSDR/aus5min_postqc/AU_70351.txt,21,mm,AU_70351,2010042910,2015070100,Local Standard Time,1hr,0 days 10:00:00,Australia/Sydney,2015-06-30 14:00:00+00:00,2010-04-29 00:00:00+00:00,48251.98183543564
AU_70014,Australia,70014,CANBERRA AIRPORT COMPARISON,B:/INTENSE data/Original data/Australia/RI_5min_NSW.zip/outputFor70014_999999998752763.txt,-35.3049,149.2014,578.4m,639276,13.85,5min,mm,,-999.0,0.0, Changed LST,578.4,m,/g/data/ua8/Precipitation/GSDR/aus5min_postqc/AU_70014.txt,21,mm,AU_70014,1937122713,2010120100,Local Standard Time,1hr,0 days 10:00:00,Australia/Sydney,2010-11-30 14:00:00+00:00,1937-12-27 03:00:00+00:00,48559.952241014675
AU_70073,Australia,70073,CHAKOLA (RIVERSDALE),B:/INTENSE data/Original data/Australia/RI_5min_NSW.zip/outputFor70073_999999998752763.txt,-36.0329,149.1323,716m,432124,21.73,5min,mm,,-999.0,0.0, Changed LST,716.0,m,/g/data/ua8/Precipitation/GSDR/aus5min_postqc/AU_70073.txt,21,mm,AU_70073,1965121321,2015040100,Local Standard Time,1hr,0 days 10:00:00,Australia/Sydney,2015-03-31 14:00:00+00:00,1965-12-13 11:00:00+00:00,53633.71713775117
AU_69127,Australia,69127,ARALUEN LOWER (ARALUEN RD),B:/INTENSE data/Original data/Australia/RI_5min_NSW.zip/outputFor69127_999999998752763.txt,-35.6867,149.8382,145m,304599,17.77,5min,mm,,-999.0,0.0, Changed LST,145.0,m,/g/data/ua8/Precipitation/GSDR/aus5min_postqc/AU_69127.txt,21,mm,AU_69127,1980070110,2015040100,Local Standard Time,1hr,0 days 10:00:00,Australia/Sydney,2015-03-31 14:00:00+00:00,1980-07-01 00:00:00+00:00,29666.116123953136
AU_72099,Australia,72099,TOOMA (UPPINGHAM),B:/INTENSE data/Original data/Australia/RI_5min_NSW.zip/outputFor72099_999999998752763.txt,-35.9111,148.2167,715m,228845,19.71,5min,mm,,-999.0,0.0, Changed LST,715.0,m,/g/data/ua8/Precipitation/GSDR/aus5min_postqc/AU_72099.txt,21,mm,AU_72099,1971022120,1997040100,Local Standard Time,1hr,0 days 10:00:00,Australia/Sydney,1997-03-31 14:00:00+00:00,1971-02-21 10:00:00+00:00,120337.7324320663
AU_70012,Australia,70012,BUNGONIA (INVERARY PARK),B:/INTENSE data/Original data/Australia/RI_5min_NSW.zip/outputFor70012_999999998752763.txt,-34.8996,149.9709,650m,439375,26.78,5min,mm,,-999.0,0.0, Changed LST,650.0,m,/g/data/ua8/Precipitation/GSDR/aus5min_postqc/AU_70012.txt,21,mm,AU_70012,1965051618,2015070100,Local Standard Time,1hr,0 days 10:00:00,Australia/Sydney,2015-06-30 14:00:00+00:00,1965-05-16 08:00:00+00:00,94256.992743726
AU_070330,Australia,70330,GOULBURN AIRPORT AWS,B:/INTENSE data/Original data/Australia/AWS 1min_NSW.zip/HD01D_Data_070330_999999998747787.txt,-34.8085,149.7312,640.0m,43240,10.53,1min,mm,,-999.0,0.2, Changed CET,640.0,m,/g/data/ua8/Precipitation/GSDR/aus1min_postqc/AU_070330.txt,21,mm,AU_070330,2010091318,2015082009,CET,1hr,0 days 10:00:00,Australia/Sydney,2015-08-19 23:00:00+00:00,2010-09-13 08:00:00+00:00,96694.75512539475
AU_069139,Australia,69139,BEGA AWS,B:/INTENSE data/Original data/Australia/AWS 1min_NSW.zip/HD01D_Data_069139_999999998747787.txt,-36.6722,149.8191,41.0m,43191,8.75,1min,mm,,-999.0,0.2, Changed CET,41.0,m,/g/data/ua8/Precipitation/GSDR/aus1min_postqc/AU_069139.txt,21,mm,AU_069139,2010091519,2015082009,CET,1hr,0 days 10:00:00,Australia/Sydney,2015-08-19 23:00:00+00:00,2010-09-15 09:00:00+00:00,115524.36077788981
AU_068072,Australia,68072,NOWRA RAN AIR STATION AWS,B:/INTENSE data/Original data/Australia/AWS 1min_NSW.zip/HD01D_Data_068072_999999998747787.txt,-34.9469,150.5353,109.0m,32756,4.97,1min,mm,,-999.0,0.2, Changed CET,109.0,m,/g/data/ua8/Precipitation/GSDR/aus1min_postqc/AU_068072.txt,21,mm,AU_068072,2011112414,2015082009,CET,1hr,0 days 10:00:00,Australia/Sydney,2015-08-19 23:00:00+00:00,2011-11-24 04:00:00+00:00,122243.53096475962
AU_072161,Australia,72161,CABRAMURRA SMHEA AWS,B:/INTENSE data/Original data/Australia/AWS 1min_NSW.zip/HD01D_Data_072161_999999998747787.txt,-35.9371,148.3779,1482.4m,41009,9.63,1min,mm,,-999.0,0.2, Changed CET,1482.4,m,/g/data/ua8/Precipitation/GSDR/aus1min_postqc/AU_072161.txt,21,mm,AU_072161,2010121517,2015082009,CET,1hr,0 days 10:00:00,Australia/Sydney,2015-08-19 23:00:00+00:00,2010-12-15 07:00:00+00:00,106982.4424350472
AU_069017,Australia,69017,MONTAGUE ISLAND LIGHTHOUSE,B:/INTENSE data/Original data/Australia/AWS 1min_NSW.zip/HD01D_Data_069017_999999998747787.txt,-36.2519,150.2275,52.0m,45067,7.39,1min,mm,,-999.0,0.2, Changed CET,52.0,m,/g/data/ua8/Precipitation/GSDR/aus1min_postqc/AU_069017.txt,21,mm,AU_069017,2010062915,2015082009,CET,1hr,0 days 10:00:00,Australia/Sydney,2015-08-19 23:00:00+00:00,2010-06-29 05:00:00+00:00,91982.01274085141
AU_069138,Australia,69138,ULLADULLA AWS,B:/INTENSE data/Original data/Australia/AWS 1min_NSW.zip/HD01D_Data_069138_999999998747787.txt,-35.3635,150.4827,35.7m,48068,1.16,1min,mm,,-999.0,0.2, Changed CET,35.7,m,/g/data/ua8/Precipitation/GSDR/aus1min_postqc/AU_069138.txt,21,mm,AU_069138,2010022414,2015082009,CET,1hr,0 days 10:00:00,Australia/Sydney,2015-08-19 23:00:00+00:00,2010-02-24 04:00:00+00:00,94051.66171052065
AU_070339,Australia,70339,TUGGERANONG (ISABELLA PLAINS) AWS,B:/INTENSE data/Original data/Australia/AWS 1min_NSW.zip/HD01D_Data_070339_999999998747787.txt,-35.4184,149.0937,586.7m,134228,36.43,1min,mm,,-999.0,0.2, Changed CET,586.7,m,/g/data/ua8/Precipitation/GSDR/aus1min_postqc/AU_070339.txt,21,mm,AU_070339,2000042714,2015082009,CET,1hr,0 days 10:00:00,Australia/Sydney,2015-08-19 23:00:00+00:00,2000-04-27 04:00:00+00:00,46532.002372573756
AU_069148,Australia,69148,MORUYA AIRPORT AWS,B:/INTENSE data/Original data/Australia/AWS 1min_NSW.zip/HD01D_Data_069148_999999998747787.txt,-35.9004,150.1437,4.0m,43305,7.42,1min,mm,,-999.0,0.2, Changed CET,4.0,m,/g/data/ua8/Precipitation/GSDR/aus1min_postqc/AU_069148.txt,21,mm,AU_069148,2010091101,2015082009,CET,1hr,0 days 10:00:00,Australia/Sydney,2015-08-19 23:00:00+00:00,2010-09-10 15:00:00+00:00,62974.13219884002
AU_070014,Australia,70014,CANBERRA AIRPORT COMPARISON,B:/INTENSE data/Original data/Australia/AWS 1min_NSW.zip/HD01D_Data_070014_999999998747787.txt,-35.3049,149.2014,578.4m,92896,51.76,1min,mm,,-999.0,0.2, Changed CET,578.4,m,/g/data/ua8/Precipitation/GSDR/aus1min_postqc/AU_070014.txt,21,mm,AU_070014,2000042714,2010120205,CET,1hr,0 days 10:00:00,Australia/Sydney,2010-12-01 19:00:00+00:00,2000-04-27 04:00:00+00:00,48559.952241014675
AU_070349,Australia,70349,MOUNT GININI AWS,B:/INTENSE data/Original data/Australia/AWS 1min_NSW.zip/HD01D_Data_070349_999999998747787.txt,-35.5293,148.7721,1760.0m,97934,56.48,1min,mm,,-999.0,0.2, Changed CET,1760.0,m,/g/data/ua8/Precipitation/GSDR/aus1min_postqc/AU_070349.txt,21,mm,AU_070349,2004061720,2015082009,CET,1hr,0 days 10:00:00,Australia/Sydney,2015-08-19 23:00:00+00:00,2004-06-17 10:00:00+00:00,68631.94038254545
AU_070351,Australia,70351,CANBERRA AIRPORT,B:/INTENSE data/Original data/Australia/AWS 1min_NSW.zip/HD01D_Data_070351_999999998747787.txt,-35.3089,149.2004,577.1m,55963,16.1,1min,mm,,-999.0,0.2, Changed CET,577.1,m,/g/data/ua8/Precipitation/GSDR/aus1min_postqc/AU_070351.txt,21,mm,AU_070351,2009040115,2015082009,CET,1hr,0 days 10:00:00,Australia/Sydney,2015-08-19 23:00:00+00:00,2009-04-01 05:00:00+00:00,48251.98183543564
AU_069132,Australia,69132,BRAIDWOOD RACECOURSE AWS,B:/INTENSE data/Original data/Australia/AWS 1min_NSW.zip/HD01D_Data_069132_999999998747787.txt,-35.4253,149.7835,665.2m,43221,3.84,1min,mm,,-999.0,0.2, Changed CET,665.2,m,/g/data/ua8/Precipitation/GSDR/aus1min_postqc/AU_069132.txt,21,mm,AU_069132,2010091413,2015082009,CET,1hr,0 days 10:00:00,Australia/Sydney,2015-08-19 23:00:00+00:00,2010-09-14 03:00:00+00:00,35940.942949121374
AU_069128,Australia,69128,NERRIGA AWS,B:/INTENSE data/Original data/Australia/AWS 1min_NSW.zip/HD01D_Data_069128_999999998747787.txt,-35.1103,150.0826,622.0m,18960,2.46,1min,mm,,-999.0,0.2, Changed CET,622.0,m,/g/data/ua8/Precipitation/GSDR/aus1min_postqc/AU_069128.txt,21,mm,AU_069128,2013062110,2015082009,CET,1hr,0 days 10:00:00,Australia/Sydney,2015-08-19 23:00:00+00:00,2013-06-21 00:00:00+00:00,80154.94808133379
AU_070217,Australia,70217,COOMA AIRPORT AWS,B:/INTENSE data/Original data/Australia/AWS 1min_NSW.zip/HD01D_Data_070217_999999998747787.txt,-36.2939,148.9725,930.0m,60886,27.46,1min,mm,,-999.0,0.2, Changed CET,930.0,m,/g/data/ua8/Precipitation/GSDR/aus1min_postqc/AU_070217.txt,21,mm,AU_070217,2008090812,2015082009,CET,1hr,0 days 10:00:00,Australia/Sydney,2015-08-19 23:00:00+00:00,2008-09-08 02:00:00+00:00,85407.34756340603
